     3.04           OBSERVATION DATA    M: Mixed            RINEX VERSION / TYPE
CONVBIN 2.4.3                           20230827 174532 UTC PGM / RUN BY / DATE 
format: u-blox UBX                                          COMMENT             
log: .\log3.bin                                             COMMENT             
                                                            MARKER NAME         
                                                            MARKER NUMBER       
                                                            MARKER TYPE         
                                                            OBSERVER / AGENCY   
                                                            REC # / TYPE / VERS 
                                                            ANT # / TYPE        
  4043261.0576 -4264661.6154 -2472980.2689                  APPROX POSITION XYZ 
        0.0000        0.0000        0.0000                  ANTENNA: DELTA H/E/N
G    4 C1C L1C C2L L2L                                      SYS / # / OBS TYPES 
R    4 C1C L1C C2C L2C                                      SYS / # / OBS TYPES 
E    4 C1C L1C C7Q L7Q                                      SYS / # / OBS TYPES 
C    2 C2I L2I                                              SYS / # / OBS TYPES 
  2023    08    20    19    36   07.5960000     GPS         TIME OF FIRST OBS   
  2023    08    20    19    39   37.8970000     GPS         TIME OF LAST OBS    
G L1C                                                       SYS / PHASE SHIFT   
G L2L  0.00000                                              SYS / PHASE SHIFT   
R L1C                                                       SYS / PHASE SHIFT   
R L2C                                                       SYS / PHASE SHIFT   
E L1C  0.00000                                              SYS / PHASE SHIFT   
E L7Q  0.00000                                              SYS / PHASE SHIFT   
C L2I                                                       SYS / PHASE SHIFT   
  6 R09 -2 R10 -7 R16 -1 R18 -3 R19  3 R20  2               GLONASS SLOT / FRQ #
 C1C    0.000 C1P    0.000 C2C    0.000 C2P    0.000        GLONASS COD/PHS/BIS 
                                                            END OF HEADER       
> 2023 08 20 19 36 07.5960000  0 12                     
G11  22126541.037                    22126539.656    90604539.2451 
G18  22029772.406   115767249.6451   22029781.856                  
G29  21013441.383                3   21013447.562                3 
R18  22904060.513                                                  
R19  19947027.678   106703147.4681                                 
R10  21357122.833                3                                 
G25  19707047.908   103561260.6661   19707062.597                1 
G12  19883712.788                3                                 
G20  21125797.658                3                                 
G28  22717109.705                3                                 
R20                                  19539489.966                1 
R09                                  18328675.527                1 
> 2023 08 20 19 36 07.6460000  0 12                     
G11  22126580.845                    22126579.446    90604702.241  
G18  22029753.868   115767152.390    22029763.313    90208212.051  
G29  21013445.593                2   21013451.521                3 
R18  22904100.782                                                  
R19  19947062.252   106703332.341                                  
R10  21357095.992                3                                 
G25  19707039.823   103561218.163    19707054.451                  
G12  19883727.578                3                                 
G20  21125814.864                3                                 
G28  22717103.138                3                                 
R20                                  19539493.241                  
R09                                  18328672.762                  
> 2023 08 20 19 36 07.6960000  0 12                     
G11  22126620.624                    22126619.215    90604865.218  
G18  22029735.349   115767055.177    22029744.792    90208136.286  
G29  21013449.770                2   21013455.737                3 
R18  22904141.325                                                  
R19  19947096.840   106703517.210                                  
R10  21357069.405                3                                 
G25  19707031.755   103561175.642    19707046.433                  
G12  19883741.596                3                                 
G20  21125832.592                3                                 
G28  22717096.433                3                                 
R20                                  19539496.423                  
R09                                  18328670.035                  
> 2023 08 20 19 36 07.7460000  0 12                     
G11  22126660.414                    22126659.037    90605028.213  
G18  22029716.813   115766957.976    22029726.290                  
G29  21013453.951                2   21013459.991                3 
R18  22904181.306                                                  
R19  19947131.401   106703702.020                                  
R10  21357042.723                3                                 
G25  19707023.675   103561133.131    19707038.685                  
G12  19883755.874                3                                 
G20  21125850.494                3                                 
G28  22717090.122                3                                 
R20                                  19539499.674                  
R09                                  18328667.238                  
> 2023 08 20 19 36 07.7960000  0 12                     
G11  22126700.212                    22126698.810    90605191.226  
G18  22029698.298   115766860.736    22029707.775                  
G29  21013458.105                2   21013464.109                3 
R18  22904221.184                                                  
R19  19947165.944                                                  
R10  21357016.138                3                                 
G25  19707015.556   103561090.586    19707030.212                  
G12  19883769.911                3                                 
G20  21125868.391                3                                 
G28  22717082.980                3                                 
R20                                  19539503.022                  
R09                                  18328664.476                  
> 2023 08 20 19 36 07.8460000  0 12                     
G11  22126740.019                    22126738.610    90605354.214  
G18  22029679.778   115766763.495    22029689.268                  
G29  21013462.244                2   21013468.379                3 
R18  22904261.651                                                  
R19  19947200.508                                                  
R10  21356989.461                3                                 
G25  19707007.467   103561048.076    19707022.395                  
G12  19883783.823                3                                 
G20  21125886.130                3                                 
G28  22717076.416                3                                 
R20                                  19539506.211                  
R09                                  18328661.749                  
> 2023 08 20 19 36 07.8960000  0 12                     
G11  22126779.856                    22126778.436    90605517.215  
G18  22029661.260   115766666.287    22029670.799                  
G29  21013466.462                2   21013472.482                3 
R18  22904302.093                                                  
R19  19947235.033                                                  
R10  21356962.903                3                                 
G25  19706999.383   103561005.562    19707014.225                  
G12  19883797.981                3                                 
G20  21125903.533                3                                 
G28  22717069.428                3                                 
R20                                  19539509.556                  
R09                                  18328659.000                  
> 2023 08 20 19 36 07.9460000  0 11                     
G11  22126819.656                    22126818.246    90605680.210  
G18  22029642.774   115766569.096    22029652.296                  
G29  21013470.614                2   21013476.416                3 
R18  22904342.509                                                  
R19  19947269.566                                                  
G25  19706991.327   103560963.038    19707006.328                  
G12  19883812.427                3                                 
G20  21125921.249                3                                 
G28  22717062.035                3                                 
R20                                  19539512.815                  
R09                                  18328656.258                  
> 2023 08 20 19 36 07.9960000  0 11                     
G11  22126859.494                    22126858.008    90605843.198  
G18  22029624.262   115766471.827    22029633.795                  
G29  21013474.767                2   21013480.424                3 
R18  22904382.922                                                  
R19  19947304.150                                                  
G25  19706983.254   103560920.542    19706998.076                  
G12  19883826.485                3                                 
G20  21125938.409                3                                 
G28  22717055.149                3                                 
R20                                  19539516.003                  
R09                                  18328653.552                  
> 2023 08 20 19 36 08.0460000  0 11                     
G11  22126899.311                    22126897.818    90606006.170  
G18  22029605.796   115766374.554    22029615.293    90207605.934  
G29  21013478.894                2   21013484.556                3 
R18  22904423.084                                                  
R19  19947338.736                                                  
G25  19706975.163   103560878.038    19706989.850                  
G12  19883840.666                3                                 
G20  21125956.194                3                                 
G28  22717048.370                3                                 
R20                                  19539519.496                  
R09                                  18328650.819                  
> 2023 08 20 19 36 08.0960000  0 11                     
G11  22126939.077                    22126937.682    90606169.206  
G18  22029587.235   115766277.368    22029596.813    90207530.221  
G29  21013483.122                2   21013488.653                3 
R18  22904463.037                                                  
R19  19947373.265                                                  
G25  19706967.086   103560835.494    19706981.794                  
G12  19883854.476                3                                 
G20  21125973.909                3                                 
G28  22717041.667                3                                 
R20                                  19539522.823                  
R09                                  18328648.079                  
> 2023 08 20 19 36 08.1460000  0 10                     
G11  22126978.891                    22126977.502    90606332.196  
G18  22029568.742   115766180.161    22029578.306    90207454.454  
G29  21013487.291                2   21013493.095                3 
R18  22904503.305                                                  
G25  19706958.987   103560792.959    19706973.498                  
G12  19883868.915                3                                 
G20  21125991.590                3                                 
G28  22717034.995                3                                 
R20                                  19539526.166                  
R09                                  18328645.336                  
> 2023 08 20 19 36 08.1960000  0 10                     
G11  22127018.643                    22127017.290    90606495.176  
G18  22029550.225   115766082.945    22029559.786    90207378.678  
G29  21013491.416                2   21013497.107                3 
R18  22904543.069                                                  
G25  19706950.905   103560750.463    19706965.454                  
G12  19883882.990                3                                 
G20  21126009.021                3                                 
G28  22717027.940                3                                 
R20                                  19539529.153                  
R09                                  18328642.610                  
> 2023 08 20 19 36 08.2960000  0 10                     
G11  22127098.309                    22127096.932    90606821.184  
G18  22029513.211   115765888.484    22029522.795    90207227.172  
G29  21013499.757                2   21013505.500                3 
R18  22904623.198                                                  
G25  19706934.783   103560665.499    19706949.460                  
G12  19883911.356                3                                 
G20  21126044.300                3                                 
G28  22717014.465                3                                 
R20                                  19539535.463                  
R09                                  18328637.118                  
> 2023 08 20 19 36 08.3960000  0 10                     
G11  22127177.923                    22127176.551    90607147.176  
G18  22029476.191   115765694.019    22029485.807    90207075.684  
G29  21013508.100                2   21013513.579                3 
R18  22904703.043                                                  
G25  19706918.592   103560580.424    19706933.128                  
G12  19883939.667                3                                 
G20  21126079.580                3                                 
G28  22717001.183                3                                 
R20                                  19539542.313                  
R09                                  18328631.628                  
> 2023 08 20 19 36 08.4960000  0 10                     
G11  22127257.608                    22127256.134    90607473.140  
G18  22029439.179   115765499.588    22029448.780    90206924.136  
G29  21013516.515                2   21013521.782                3 
R18  22904783.553                                                  
G25  19706902.402   103560495.410    19706917.091                  
G12  19883968.280                3                                 
G20  21126114.608                3                                 
G28  22716987.566                3                                 
R20                                  19539548.669                  
R09                                  18328626.176                  
> 2023 08 20 19 36 08.5960000  0 10                     
G11  22127337.246                    22127335.714    90607799.161  
G18  22029402.208   115765305.174    22029411.791    90206772.645  
G29  21013524.796                2   21013530.131                3 
R18  22904864.147                                                  
G25  19706886.225   103560410.413    19706900.992                  
G12  19883996.458                3                                 
G20  21126149.503                3                                 
G28  22716973.558                3                                 
R20                                  19539555.368                  
R09                                  18328620.712                  
> 2023 08 20 19 36 08.6960000  0 10                     
G11  22127416.812                    22127415.305    90608125.168  
G18  22029365.203   115765110.714    22029374.801    90206621.149  
G29  21013533.110                2   21013538.217                3 
R18  22904944.219                                                  
G25  19706870.035   103560325.414    19706884.741                  
G12  19884025.045                3                                 
G20  21126185.215                3                                 
G28  22716960.115                3                                 
R20                                  19539561.735                  
R09                                  18328615.246                  
> 2023 08 20 19 36 08.7960000  0 10                     
G11  22127496.404                    22127494.965    90608451.164  
G18  22029328.207   115764916.327    22029337.792    90206469.640  
G29  21013541.512                2   21013546.626                3 
R18  22905024.555                                                  
G25  19706853.865   103560240.402    19706868.546                  
G12  19884053.101                3                                 
G20  21126221.283                3                                 
G28  22716946.170                3                                 
R20                                  19539568.131                  
R09                                  18328609.771                  
> 2023 08 20 19 36 08.8960000  0 10                     
G11  22127575.989                    22127574.516    90608777.154  
G18  22029291.260   115764721.880    22029300.812    90206318.138  
G29  21013549.822                2   21013554.995                3 
R18  22905105.162                                                  
G25  19706837.703   103560155.414    19706852.155                  
G12  19884081.157                3                                 
G20  21126256.805                3                                 
G28  22716932.337                3                                 
R20                                  19539574.373                  
R09                                  18328604.237                  
> 2023 08 20 19 36 08.9960000  0 10                     
G11  22127655.542                    22127654.076    90609103.168  
G18  22029254.228   115764527.440    22029263.789    90206166.620  
G29  21013558.175                2   21013563.447                3 
R18  22905185.267                                                  
G25  19706821.576   103560070.415    19706835.961                  
G12  19884109.810                3                                 
G20  21126291.644                3                                 
G28  22716918.843                3                                 
R20                                  19539580.705                  
R09                                  18328598.822                  
> 2023 08 20 19 36 09.0960000  0 10                     
G11  22127735.146                    22127733.687    90609429.153  
G18  22029217.305   115764333.041    22029226.803    90206015.148  
G29  21013566.515                2   21013572.000                3 
R18  22905265.303                                                  
G25  19706805.382   103559985.405    19706819.753                  
G12  19884138.108                3                                 
G20  21126327.140                3                                 
G28  22716905.346                3                                 
R20                                  19539587.378                  
R09                                  18328593.336                  
> 2023 08 20 19 36 09.1960000  0 10                     
G11  22127814.766                    22127813.305    90609755.187  
G18  22029180.330   115764138.643    22029189.814    90205863.640  
G29  21013574.780                2   21013580.279                3 
R18  22905345.438                                                  
G25  19706789.199   103559900.452    19706803.694                  
G12  19884166.110                3                                 
G20  21126362.158                3                                 
G28  22716891.492                3                                 
R20                                  19539594.010                  
R09                                  18328587.901                  
> 2023 08 20 19 36 09.2960000  0 10                     
G11  22127894.464                    22127892.938    90610081.180  
G18  22029143.255   115763944.173    22029152.814    90205712.177  
G29  21013583.087                2   21013588.648                3 
R18  22905426.325                                                  
G25  19706773.043   103559815.442    19706787.226                  
G12  19884194.577                3                                 
G20  21126396.964                3                                 
G28  22716878.027                3                                 
R20                                  19539600.069                  
R09                                  18328582.444                  
> 2023 08 20 19 36 09.3960000  0 10                     
G11  22127974.091                    22127972.509    90610407.167  
G18  22029106.301   115763749.816    22029115.809    90205560.642  
G29  21013591.430                2   21013596.757                3 
R18  22905507.163                                                  
G25  19706756.849   103559730.453    19706771.279                  
G12  19884222.043                3                                 
G20  21126432.432                3                                 
G28  22716864.209                3                                 
R20                                  19539606.499                  
R09                                  18328576.965                  
> 2023 08 20 19 36 09.4960000  0 10                     
G11  22128053.692                    22128052.054    90610733.208  
G18  22029069.363   115763555.362    22029078.833    90205409.196  
G29  21013599.772                2   21013605.091                3 
R18  22905587.507                                                  
G25  19706740.680   103559645.443    19706755.105                  
G12  19884250.117                3                                 
G20  21126467.527                3                                 
G28  22716850.499                3                                 
R20                                  19539613.003                  
R09                                  18328571.484                  
> 2023 08 20 19 36 09.5960000  0 11                     
G11  22128133.364                    22128131.612    90611059.170  
G18  22029032.351   115763360.964    22029041.812    90205257.714  
G29  21013608.114                2   21013612.969                3 
R18  22905667.269                                                  
R19  19948409.897                1                                 
G25  19706724.549   103559560.453    19706738.834                  
G12  19884278.217                3                                 
G20  21126502.341                3                                 
G28  22716836.884                3                                 
R20                                  19539619.184                  
R09                                  18328566.042                  
> 2023 08 20 19 36 09.6960000  0 11                     
G11  22128212.994                    22128211.183    90611385.173  
G18  22028995.365   115763166.574    22029004.820    90205106.200  
G29  21013616.452                2   21013621.355                3 
R18  22905747.843                                                  
R19  19948479.048                                                  
G25  19706708.408   103559475.459    19706722.248                  
G12  19884306.135                3                                 
G20  21126537.283                3                                 
G28  22716823.223                3                                 
R20                                  19539625.757                  
R09                                  18328560.560                  
> 2023 08 20 19 36 09.7960000  0 11                     
G11  22128292.603                    22128290.875    90611711.203  
G18  22028958.328   115762972.188    22028967.858    90204954.702  
G29  21013624.777                2   21013629.599                3 
R18  22905828.475                                                  
R19  19948548.103                                                  
G25  19706692.242   103559390.480    19706706.090                  
G12  19884334.409                3                                 
G20  21126572.219                3                                 
G28  22716809.413                3                                 
R20                                  19539632.262                  
R09                                  18328555.064                  
> 2023 08 20 19 36 09.8960000  0 11                     
G11  22128372.267                    22128370.527    90612037.138  
G18  22028921.259   115762777.709    22028930.873    90204803.267  
G29  21013633.110                2   21013637.650                3 
R18  22905909.016                                                  
R19  19948617.277                                                  
G25  19706676.092   103559305.514    19706690.110                  
G12  19884362.460                3                                 
G20  21126607.683                3                                 
G28  22716795.794                3                                 
R20                                  19539638.653                  
R09                                  18328549.566                  
> 2023 08 20 19 36 09.9960000  0 11                     
G11  22128451.919                    22128450.145    90612363.205  
G18  22028884.286   115762583.348    22028893.909    90204651.755  
G29  21013641.426                2   21013646.156                3 
R18  22905989.344                                                  
R19  19948686.412                                                  
G25  19706659.902   103559220.518    19706673.594                  
G12  19884390.880                3                                 
G20  21126643.052                3                                 
G28  22716782.482                3                                 
R20                                  19539645.123                  
R09                                  18328544.066                  
> 2023 08 20 19 36 10.0960000  0 11                     
G11  22128531.553                    22128529.729    90612689.212  
G18  22028847.306   115762388.941    22028856.908    90204500.321  
G29  21013649.691                2   21013654.668                3 
R18  22906069.958                                                  
R19  19948755.558                                                  
G25  19706643.734   103559135.581    19706657.427                  
G12  19884418.626                3                                 
G20  21126678.395                3                                 
G28  22716768.408                3                                 
R20                                  19539651.421                  
R09                                  18328538.629                  
> 2023 08 20 19 36 10.1960000  0 11                     
G11  22128611.174                    22128609.337    90613015.237  
G18  22028810.330   115762194.583    22028819.912    90204348.844  
G29  21013658.007                2   21013663.012                3 
R18  22906150.935                                                  
R19  19948824.686                                                  
G25  19706627.546   103559050.612    19706641.205                  
G12  19884446.934                3                                 
G20  21126714.112                3                                 
G28  22716754.489                3                                 
R20                                  19539657.824                  
R09                                  18328533.173                  
> 2023 08 20 19 36 10.2960000  0 11                     
G11  22128690.800                    22128688.949    90613341.270  
G18  22028773.360   115762000.245    22028782.940    90204197.342  
G29  21013666.330                2   21013671.434                3 
R18  22906231.579                                                  
R19  19948893.808                                                  
G25  19706611.340   103558965.648    19706624.692                  
G12  19884474.949                3                                 
G20  21126749.893                3                                 
G28  22716740.670                3                                 
R20                                  19539664.042                  
R09                                  18328527.732                  
> 2023 08 20 19 36 10.3960000  0 11                     
G11  22128770.386                    22128768.606    90613667.262  
G18  22028736.379   115761805.851    22028745.981                  
G29  21013674.683                2   21013679.744                3 
R18  22906311.658                                                  
R19  19948962.958                                                  
G25  19706595.146   103558880.725    19706608.389                  
G12  19884503.551                3                                 
G20  21126785.570                3                                 
G28  22716726.419                3                                 
R20                                  19539670.548                  
R09                                  18328522.261                  
> 2023 08 20 19 36 10.4960000  0 11                     
G11  22128850.025                    22128848.246    90613993.283  
G18  22028699.373   115761611.471    22028708.991                  
G29  21013683.055                2   21013688.112                3 
R18  22906391.464                                                  
R19  19949032.050                                                  
G25  19706578.942   103558795.754    19706592.632                  
G12  19884532.106                3                                 
G20  21126820.542                3                                 
G28  22716712.967                3                                 
R20                                  19539676.927                  
R09                                  18328516.789                  
> 2023 08 20 19 36 10.5960000  0 11                     
G11  22128929.634                    22128927.849    90614319.292  
G18  22028662.377   115761417.078    22028671.982                  
G29  21013691.367                2   21013696.510                3 
R18  22906472.124                                                  
R19  19949101.171                                                  
G25  19706562.797   103558710.797    19706576.584                  
G12  19884560.579                3                                 
G20  21126856.051                3                                 
G28  22716699.368                3                                 
R20                                  19539683.196                  
R09                                  18328511.391                  
> 2023 08 20 19 36 10.6960000  0 11                     
G11  22129009.273                    22129007.533    90614645.308  
G18  22028625.354   115761222.704    22028634.982                  
G29  21013699.708                2   21013704.733                3 
R18  22906552.838                                                  
R19  19949170.360                                                  
G25  19706546.618   103558625.850    19706560.656                  
G12  19884588.883                3                                 
G20  21126891.182                3                                 
G28  22716686.303                3                                 
R20                                  19539689.705                  
R09                                  18328506.001                  
> 2023 08 20 19 36 10.7960000  0 11                     
G11  22129088.889                    22129087.118    90614971.326  
G18  22028588.414   115761028.394    22028597.989    90203440.070  
G29  21013708.041                2   21013713.243                3 
R18  22906633.199                                                  
R19  19949239.521                                                  
G25  19706530.448   103558540.882    19706544.573                  
G12  19884616.876                3                                 
G20  21126927.217                3                                 
G28  22716673.049                3                                 
R20                                  19539696.215                  
R09                                  18328500.532                  
> 2023 08 20 19 36 10.8960000  0 11                     
G11  22129168.489                    22129166.685    90615297.348  
G18  22028551.361   115760833.973    22028560.989    90203288.606  
G29  21013716.276                2   21013721.521                3 
R18  22906713.393                                                  
R19  19949308.620                                                  
G25  19706514.350   103558455.982    19706528.463                  
G12  19884645.426                3                                 
G20  21126962.592                3                                 
G28  22716659.024                3                                 
R20                                  19539702.410                  
R09                                  18328495.080                  
> 2023 08 20 19 36 10.9960000  0 11                     
G11  22129248.089                    22129246.296    90615623.367  
G18  22028514.347   115760639.608    22028523.969    90203137.234  
G29  21013724.587                2   21013729.902                3 
R18  22906793.716                                                  
R19  19949377.771                                                  
G25  19706498.214   103558371.002    19706512.460                  
G12  19884674.025                3                                 
G20  21126997.955                3                                 
G28  22716645.496                3                                 
R20                                  19539709.051                  
R09                                  18328489.663                  
> 2023 08 20 19 36 11.0960000  0 11                     
G11  22129327.729                    22129325.968    90615949.395  
G18  22028477.333   115760445.275    22028486.953    90202985.738  
G29  21013732.914                2   21013738.255                3 
R18  22906874.124                                                  
R19  19949446.898                                                  
G25  19706481.990   103558286.056    19706495.917                  
G12  19884702.618                3                                 
G20  21127033.720                3                                 
G28  22716631.803                3                                 
R20                                  19539715.443                  
R09                                  18328484.213                  
> 2023 08 20 19 36 11.1960000  0 11                     
G11  22129407.343                    22129405.615    90616275.426  
G18  22028440.289   115760250.911    22028449.999    90202834.312  
G29  21013741.266                2   21013746.604                3 
R18  22906954.464                                                  
R19  19949516.055                                                  
G25  19706465.831   103558201.156    19706479.856                  
G12  19884731.146                3                                 
G20  21127069.193                3                                 
G28  22716618.249                3                                 
R20                                  19539721.562                  
R09                                  18328478.737                  
> 2023 08 20 19 36 11.2960000  0 10                     
G11  22129486.948                    22129485.280    90616601.445  
G18  22028403.358   115760056.585    22028412.991    90202682.874  
G29  21013749.534                2   21013754.888                3 
R18  22907034.802                                                  
G25  19706449.648   103558116.210    19706463.215                  
G12  19884759.262                3                                 
G20  21127104.220                3                                 
G28  22716604.872                3                                 
R20                                  19539727.908                  
R09                                  18328473.243                  
> 2023 08 20 19 36 11.3960000  0 10                     
G11  22129566.501                    22129564.877    90616927.455  
G18  22028366.362   115759862.224    22028375.990    90202531.434  
G29  21013757.868                2   21013763.341                3 
R18  22907114.965                                                  
G25  19706433.479   103558031.263    19706447.319                  
G12  19884787.797                3                                 
G20  21127139.413                3                                 
G28  22716591.089                3                                 
R20                                  19539734.432                  
R09                                  18328467.791                  
> 2023 08 20 19 36 11.4960000  0 10                     
G11  22129646.102                    22129644.503    90617253.491  
G18  22028329.405   115759667.857    22028339.018    90202379.983  
G29  21013766.222                2   21013771.679                3 
R18  22907194.908                                                  
G25  19706417.294   103557946.366    19706431.290                  
G12  19884815.860                3                                 
G20  21127175.227                3                                 
G28  22716577.224                3                                 
R20                                  19539741.095                  
R09                                  18328462.361                  
> 2023 08 20 19 36 11.5960000  0 10                     
G11  22129725.737                    22129724.147    90617579.540  
G18  22028292.415   115759473.559    22028302.060    90202228.589  
G29  21013774.492                2   21013779.851                3 
R18  22907274.941                                                  
G25  19706401.165   103557861.442    19706415.188                  
G12  19884843.980                3                                 
G20  21127210.732                3                                 
G28  22716562.924                3                                 
R20                                  19539747.235                  
R09                                  18328456.909                  
> 2023 08 20 19 36 11.6960000  0 10                     
G11  22129805.405                    22129803.795    90617905.558  
G18  22028255.524   115759279.199    22028265.092    90202077.134  
G29  21013782.808                2   21013788.519                3 
R18  22907355.787                                                  
G25  19706384.985   103557776.517    19706399.230                  
G12  19884872.277                3                                 
G20  21127246.014                3                                 
G28  22716549.634                3                                 
R20                                  19539753.836                  
R09                                  18328451.503                  
> 2023 08 20 19 36 11.7960000  0 11                     
G11  22129885.056                    22129883.403    90618231.565  
G18  22028218.551   115759084.845    22028228.085    90201925.700  
G29  21013791.197                2   21013796.840                3 
R18  22907436.146                                                  
G25  19706368.855   103557691.625    19706382.835                  
G12  19884901.178                3                                 
G20  21127281.551                3                                 
G28  22716536.155                3                                 
R20                                  19539760.565                  
R09                                  18328446.037                  
R10                                  21353314.519                3 
> 2023 08 20 19 36 11.8960000  0 11                     
G11  22129964.662                    22129963.011    90618557.565  
G18  22028181.599   115758890.543    22028191.121    90201774.256  
G29  21013799.555                2   21013804.817                3 
R18  22907516.978                                                  
G25  19706352.682   103557606.662    19706366.625                  
G12  19884929.679                3                                 
G20  21127317.176                3                                 
G28  22716522.343                3                                 
R20                                  19539766.986                  
R09                                  18328440.602                  
R10                                  21353264.297                3 
> 2023 08 20 19 36 11.9960000  0 11                     
G11  22130044.295                    22130042.619    90618883.615  
G18  22028144.533                    22028154.155                  
G29  21013807.861                2   21013812.952                3 
R18  22907597.563                                                  
G25  19706336.542   103557521.748    19706350.656                  
G12  19884958.207                3                                 
G20  21127352.465                3                                 
G28  22716507.969                3                                 
R20                                  19539773.602                  
R09                                  18328435.112                  
R10                                  21353213.588                3 
> 2023 08 20 19 36 12.0960000  0 11                     
G11  22130123.913                    22130122.192    90619209.628  
G18  22028107.584                    22028117.192    90201471.394  
G29  21013816.169                2   21013821.488                3 
R18  22907678.133                                                  
G25  19706320.388   103557436.870    19706334.573                  
G12  19884986.952                3                                 
G20  21127387.799                3                                 
G28  22716494.484                3                                 
R20                                  19539780.005                  
R09                                  18328429.667                  
R10                                  21353164.922                3 
> 2023 08 20 19 36 12.1960000  0 11                     
G11  22130203.557                    22130201.820    90619535.647  
G18  22028070.623                    22028080.228    90201319.977  
G29  21013824.434                2   21013829.735                3 
R18  22907757.993                                                  
G25  19706304.202   103557351.889    19706318.589                  
G12  19885015.142                3                                 
G20  21127423.172                3                                 
G28  22716480.081                3                                 
R20                                  19539786.694                  
R09                                  18328424.262                  
R10                                  21353116.868                3 
> 2023 08 20 19 36 12.2960000  0 11                     
G11  22130283.213                    22130281.381    90619861.695  
G18  22028033.620                    22028043.186    90201168.523  
G29  21013832.750                2   21013837.970                3 
R18  22907838.350                                                  
G25  19706288.080   103557266.989    19706302.300                  
G12  19885043.262                3                                 
G20  21127458.464                3                                 
G28  22716466.097                3                                 
R20                                  19539792.980                  
R09                                  18328418.833                  
R10                                  21353069.434                3 
> 2023 08 20 19 36 12.3960000  0 11                     
G11  22130362.809                    22130361.046    90620187.738  
G18  22027996.662   115757918.854    22028006.248    90201017.104  
G29  21013841.157                2   21013846.267                3 
R18  22907919.367                                                  
G25  19706271.969   103557182.109    19706286.405                  
G12  19885070.995                3                                 
G20  21127494.066                3                                 
G28  22716452.356                3                                 
R20                                  19539799.493                  
R09                                  18328413.424                  
R10                                  21353020.265                3 
> 2023 08 20 19 36 12.4960000  0 11                     
G11  22130442.482                    22130440.617    90620513.724  
G18  22027959.648   115757724.535    22027969.231    90200865.674  
G29  21013849.449                2   21013854.552                3 
R18  22907999.655                                                  
G25  19706255.844   103557097.171    19706270.348                  
G12  19885099.422                3                                 
G20  21127529.493                3                                 
G28  22716438.822                3                                 
R20                                  19539806.453                  
R09                                  18328408.015                  
R10                                  21352973.342                3 
> 2023 08 20 19 36 12.5960000  0 11                     
G11  22130522.115                    22130520.261    90620839.770  
G18  22027922.651   115757530.230    22027932.267                  
G29  21013857.816                2   21013862.800                3 
R18  22908079.917                                                  
G25  19706239.701   103557012.312    19706254.147                  
G12  19885127.221                3                                 
G20  21127564.721                3                                 
G28  22716425.039                3                                 
R20                                  19539812.659                  
R09                                  18328402.585                  
R10                                  21352925.460                3 
> 2023 08 20 19 36 12.6960000  0 11                     
G11  22130601.804                    22130599.871    90621165.814  
G18  22027885.641   115757335.896    22027895.293                  
G29  21013866.130                1   21013871.084                3 
R18  22908160.515                                                  
G25  19706223.524   103556927.394    19706237.940                  
G12  19885155.530                3                                 
G20  21127599.956                3                                 
G28  22716411.874                3                                 
R20                                  19539819.292                  
R09                                  18328397.145                  
R10                                  21352878.096                3 
> 2023 08 20 19 36 12.7960000  0 11                     
G11  22130681.409                    22130679.511    90621491.856  
G18  22027848.690   115757141.615    22027858.282                  
G29  21013874.440                    21013879.323                3 
R18  22908240.865                                                  
G25  19706207.353   103556842.497    19706221.485                  
G12  19885183.757                3                                 
G20  21127635.445                3                                 
G28  22716398.631                3                                 
R20                                  19539825.855                  
R09                                  18328391.724                  
R10                                  21352828.910                3 
> 2023 08 20 19 36 12.8960000  0 12                     
G11  22130761.057                    22130759.090    90621817.901  
G18  22027811.702   115756947.284    22027821.361                  
G29  21013882.775                    21013887.781                3 
R18  22908321.154                                                  
R19  19950691.205                1                                 
G25  19706191.230   103556757.651    19706205.049                  
G12  19885212.620                3                                 
G20  21127670.939                3                                 
G28  22716385.121                3                                 
R20                                  19539832.528                  
R09                                  18328386.292                  
R10                                  21352779.128                3 
> 2023 08 20 19 36 12.9960000  0 12                     
G11  22130840.727                    22130838.744    90622143.946  
G18  22027774.748   115756753.035    22027784.345                  
G29  21013891.077                    21013896.204                3 
R18  22908401.307                                                  
R19  19950760.372                                                  
R10  21354303.318                3   21352731.241                3 
G25  19706175.109   103556672.781    19706188.541                  
G12  19885241.031                3                                 
G20  21127706.428                3                                 
G28  22716371.695                3                                 
R20                                  19539839.185                  
R09                                  18328380.816                  
> 2023 08 20 19 36 13.0960000  0 12                     
G11  22130920.416                    22130918.341    90622469.979  
G18  22027737.679   115756558.767    22027747.389                  
G29  21013899.358                    21013904.769                3 
R18  22908481.696                                                  
R19  19950829.524                                                  
G25  19706158.912   103556587.899    19706172.394                  
G12  19885269.247                3                                 
G20  21127741.529                3                                 
G28  22716357.987                3                                 
R20                                  19539845.776                  
R09                                  18328375.404                  
R10                                  21352681.066                3 
> 2023 08 20 19 36 13.1960000  0 12                     
G11  22131000.027                    22130997.919    90622796.068  
G18  22027700.710   115756364.473    22027710.430                  
G29  21013907.679                    21013913.164                3 
R18  22908561.894                                                  
R19  19950898.625                                                  
R10  21354199.358                3   21352631.372                3 
G25  19706142.739   103556503.041    19706155.858                  
G12  19885297.387                3                                 
G20  21127776.795                3                                 
G28  22716343.836                3                                 
R20                                  19539852.165                  
R09                                  18328370.027                  
> 2023 08 20 19 36 13.2960000  0 12                     
G11  22131079.660                    22131077.491    90623122.108  
G18  22027663.738   115756170.171    22027673.426                  
G29  21013916.042                    21013921.739                3 
R18  22908641.698                                                  
R19  19950967.760                                                  
R10  21354147.419                3   21352579.981                3 
G25  19706126.576   103556418.175    19706139.824                  
G12  19885325.801                3                                 
G20  21127811.950                3                                 
G28  22716330.181                3                                 
R20                                  19539859.047                  
R09                                  18328364.609                  
> 2023 08 20 19 36 13.3960000  0 12                     
G11  22131159.259                    22131157.133    90623448.131  
G18  22027626.727   115755975.883    22027636.446                  
G29  21013924.411                    21013929.843                3 
R18  22908721.968                                                  
R19  19951036.873                                                  
G25  19706110.433   103556333.299    19706123.363                  
G12  19885354.423                3                                 
G20  21127846.779                3                                 
G28  22716316.211                3                                 
R20                                  19539865.702                  
R09                                  18328359.211                  
R10                                  21352529.628                3 
> 2023 08 20 19 36 13.4960000  0 12                     
G11  22131238.875                    22131236.773    90623774.220  
G18  22027589.744   115755781.645    22027599.518                  
G29  21013932.703                    21013938.043                3 
R18  22908802.154                                                  
R19  19951105.968                                                  
G25  19706094.319   103556248.467    19706107.196                  
G12  19885382.662                3                                 
G20  21127882.331                3                                 
G28  22716302.397                3                                 
R20                                  19539872.345                  
R09                                  18328353.797                  
R10                                  21352480.377                3 
> 2023 08 20 19 36 13.5960000  0 12                     
G11  22131318.433                    22131316.403    90624100.254  
G18  22027552.782   115755587.385    22027562.501                  
G29  21013940.993                    21013946.274                3 
R18  22908881.897                                                  
R19  19951175.097                                                  
G25  19706078.174   103556163.591    19706091.116                  
G12  19885411.111                3                                 
G20  21127917.738                3                                 
G28  22716289.005                3                                 
R20                                  19539878.620                  
R09                                  18328348.375                  
R10                                  21352431.573                3 
> 2023 08 20 19 36 13.6960000  0 12                     
G11  22131398.096   116301236.030    22131396.020    90624426.269  
G18  22027515.842   115755393.073    22027525.553    90199049.007  
G29  21013949.266                    21013954.265                3 
R18  22908962.727                                                  
R19  19951244.242                                                  
R10  21353939.209                3   21352381.886                3 
G25  19706062.040   103556078.747    19706075.058                  
G12  19885439.990                3                                 
G20  21127953.114                3                                 
G28  22716275.520                3                                 
R20                                  19539885.487                  
R09                                  18328342.984                  
> 2023 08 20 19 36 13.7960000  0 12                     
G11  22131477.807                    22131475.677    90624752.360  
G18  22027478.907   115755198.819    22027488.591    90198897.623  
G29  21013957.611                    21013962.815                3 
R18  22909042.060                                                  
R19  19951313.339                                                  
G25  19706045.909   103555993.898    19706058.667                  
G12  19885468.943                3                                 
G20  21127987.866                3                                 
G28  22716261.604                3                                 
R20                                  19539892.136                  
R09                                  18328337.534                  
R10                                  21352335.177                3 
> 2023 08 20 19 36 13.8960000  0 12                     
G11  22131557.502                    22131555.306    90625078.407  
G18  22027441.951   115755004.549    22027451.635    90198746.241  
G29  21013965.976                    21013970.733                3 
R18  22909122.091                                                  
R19  19951382.528                                                  
G25  19706029.799   103555909.006    19706042.535                  
G12  19885497.642                3                                 
G20  21128023.532                3                                 
G28  22716247.977                3                                 
R20                                  19539898.415                  
R09                                  18328332.153                  
R10                                  21352289.207                3 
> 2023 08 20 19 36 13.9960000  0 12                     
G11  22131637.136                    22131634.933    90625404.436  
G18  22027404.976   115754810.267    22027414.676    90198594.854  
G29  21013974.271                    21013978.988                3 
R18  22909202.302                                                  
R19  19951451.678                                                  
G25  19706013.710   103555824.162    19706026.708                3 
G12  19885525.343                3                                 
G20  21128059.036                3                                 
G28  22716234.829                3                                 
R20                                  19539904.682                  
R09                                  18328326.741                  
R10                                  21352244.037                3 
> 2023 08 20 19 36 14.0960000  0 12                     
G11  22131716.797                    22131714.533    90625730.518  
G18  22027368.000   115754616.040    22027377.703    90198443.491  
G29  21013982.576                    21013987.399                3 
R18  22909283.115                                                  
R19  19951520.811                                                  
G25  19705997.561   103555739.354    19706010.675                3 
G12  19885553.701                3                                 
G20  21128094.535                3                                 
