     3.04           OBSERVATION DATA    M: Mixed            RINEX VERSION / TYPE
CONVBIN 2.4.3                           20230827 174625 UTC PGM / RUN BY / DATE 
format: u-blox UBX                                          COMMENT             
log: .\log2.bin                                             COMMENT             
                                                            MARKER NAME         
                                                            MARKER NUMBER       
                                                            MARKER TYPE         
                                                            OBSERVER / AGENCY   
                                                            REC # / TYPE / VERS 
                                                            ANT # / TYPE        
  4043254.9641 -4264659.8685 -2472981.7771                  APPROX POSITION XYZ 
        0.0000        0.0000        0.0000                  ANTENNA: DELTA H/E/N
G    4 C1C L1C C2L L2L                                      SYS / # / OBS TYPES 
R    4 C1C L1C C2C L2C                                      SYS / # / OBS TYPES 
E    4 C1C L1C C7Q L7Q                                      SYS / # / OBS TYPES 
C    2 C2I L2I                                              SYS / # / OBS TYPES 
  2023    08    20    19    40   17.6970000     GPS         TIME OF FIRST OBS   
  2023    08    20    19    44   36.9970000     GPS         TIME OF LAST OBS    
G L1C                                                       SYS / PHASE SHIFT   
G L2L  0.00000                                              SYS / PHASE SHIFT   
R L1C                                                       SYS / PHASE SHIFT   
R L2C                                                       SYS / PHASE SHIFT   
E L1C  0.00000                                              SYS / PHASE SHIFT   
E L7Q  0.00000                                              SYS / PHASE SHIFT   
C L2I                                                       SYS / PHASE SHIFT   
  6 R09 -2 R10 -7 R16 -1 R18 -3 R19  3 R20  2               GLONASS SLOT / FRQ #
 C1C    0.000 C1P    0.000 C2C    0.000 C2P    0.000        GLONASS COD/PHS/BIS 
                                                            END OF HEADER       
> 2023 08 20 19 40 17.6970000  0 14                     
G11  22326629.889                1   22326625.613    91423859.9161 
G18  21939370.310                1   21939377.160    89838108.1531 
G29  21034810.751   110538677.2331   21034817.238                  
C30  23190005.260   120756446.0761 
R09  18319602.711                                                  
R18  23103884.524                1   23103892.334                3 
R20  19558819.402                3   19558821.499                3 
R16  19452722.445                1                                 
R19  20120758.885                1   20120769.618                1 
G25  19668650.244                    19668653.468                1 
G20  21217704.954                3                                 
G28  22686450.138                1   22686447.173                3 
G05  20981748.414   110259829.3731                                 
E26  23694506.706   124515462.8381   23694519.740    95408010.9931 
> 2023 08 20 19 40 17.7970000  0 14                     
G11  22326710.267                    22326706.046    91424189.166  
G18  21939335.075                    21939341.932    89837963.850  
G29  21034819.533   110538723.408    21034826.004                  
C30  23190062.078   120756741.825  
R09  18319601.028                                                  
R18  23103963.626                    23103972.203                3 
R20  19558828.410                3   19558830.174                3 
R16  19452796.886                3                                 
R19  20120828.712                    20120839.381                  
G25  19668635.745                    19668639.095                  
G20  21217742.750                3                                 
G28  22686439.230                    22686436.478                3 
G05  20981748.118   110259829.816                                  
E26  23694565.622   124515772.629    23694578.621    95408248.341  
> 2023 08 20 19 40 17.8970000  0 14                     
G11  22326790.657                    22326786.457    91424518.357  
G18  21939299.854                    21939306.654    89837819.522  
G29  21034828.332   110538769.588    21034834.785                  
C30  23190118.878   120757037.564  
R09  18319599.285                                                  
R18  23104043.034                    23104051.759                3 
R20  19558837.138                3   19558839.293                3 
R16  19452871.784                3                                 
R19  20120898.541                    20120909.186                  
G25  19668621.262                    19668624.551                  
G20  21217781.443                3                                 
G28  22686428.244                    22686425.488                3 
G05  20981748.093   110259830.214                                  
E26  23694624.635   124516082.451    23694637.584    95408485.749  
> 2023 08 20 19 40 17.9970000  0 14                     
G11  22326871.077                    22326866.825    91424847.673  
G18  21939264.542                    21939271.420    89837675.177  
G29  21034837.152   110538815.751    21034843.655                  
C30  23190175.690   120757333.307  
R09  18319597.650                                                  
R18  23104122.497                    23104130.702                3 
R20  19558846.044                3   19558848.297                3 
R16  19452946.190                3                                 
R19  20120968.375                    20120978.986    83715076.1811 
G25  19668606.825                    19668609.959                  
G20  21217820.189                3                                 
G28  22686417.297                    22686414.627                3 
G05  20981748.081   110259830.620                                  
E26  23694683.666   124516392.256    23694696.542    95408723.123  
> 2023 08 20 19 40 18.0970000  0 14                     
G11  22326951.484                    22326947.198                  
G18  21939229.280                    21939236.255    89837530.845  
G29  21034845.932   110538861.921    21034852.430                  
C30  23190232.551   120757629.042  
R09  18319595.970                                                  
R18  23104202.337                    23104210.072                3 
R20  19558855.333                3   19558857.126                3 
R16  19453020.638                3                                 
R19  20121038.208                    20121048.830    83715366.676  
G25  19668592.319                    19668595.960                  
G20  21217858.762                3                                 
G28  22686406.337                    22686403.365                3 
G05  20981747.598   110259831.091                                  
E26  23694742.622   124516702.044    23694755.495    95408960.500  
> 2023 08 20 19 40 18.1970000  0 14                     
G11  22327031.883                    22327027.598    91425506.119  
G18  21939194.063                    21939200.964    89837386.538  
G29  21034854.717   110538908.079    21034861.246                  
C30  23190289.343   120757924.814  
R09  18319594.285                                                  
R18  23104281.582                    23104289.556                3 
R20  19558864.100                3   19558866.390                3 
R16  19453095.177                3                                 
R19  20121107.990                    20121118.636    83715657.153  
G25  19668577.833                    19668581.474                  
G20  21217896.821                3                                 
G28  22686395.364                    22686392.349                3 
G05  20981747.993   110259831.544                                  
E26  23694801.562   124517011.845    23694814.437    95409197.884  
> 2023 08 20 19 40 18.9970000  0 14                     
G11  22327675.245                    22327670.817    91428140.142  
G18  21938912.119                    21938919.021    89836232.059  
G29  21034925.020   110539277.499    21034931.491    86134527.997  
C30  23190743.704   120760290.770  
R09  18319580.790                                                  
R18  23104917.705                    23104924.979                3 
R20  19558935.823                3   19558939.407                3 
R16  19453690.673                3                                 
R19  20121666.719                    20121677.159    83717981.077  
G25  19668462.290   103358481.258    19668465.902                  
G20  21218204.046                3                                 
G28  22686307.882                    22686305.788                3 
G05  20981750.613                                                  
E26  23695273.255   124519490.351    23695286.085    95411096.991  
> 2023 08 20 19 40 19.9970000  0 14                     
G11  22328479.240   117336899.3871   22328474.881                  
G18  21938559.380                    21938566.635    89834789.235  
G29  21035013.077   110539739.360    21035019.312    86134887.914  
C30  23191311.479                  
R09  18319563.996                                                  
R18  23105710.415                    23105718.772                3 
R20  19559026.080                3   19559029.539                3 
R16  19454436.803                3                                 
R19  20122364.866                    20122375.352    83720886.074  
G25  19668317.628   103357721.067    19668322.309                3 
G20  21218586.916                3                                 
G28  22686198.453                    22686194.893                3 
G05  20981749.660                                                  
E26  23695862.542   124522588.682    23695875.494    95413471.048  
> 2023 08 20 19 40 20.9970000  0 14                     
G11  22329283.287   117341125.064    22329278.991                  
G18  21938206.938                    21938214.188    89833346.705  
G29  21035101.008   110540201.305    21035107.131    86135247.851  
C30  23191879.419                  
R09  18319547.370                                                  
R18  23106504.638                    23106513.165                3 
R20  19559115.903                3   19559119.660                3 
R16  19455183.012                3                                 
R19  20123063.112                                                  
G25  19668172.992   103356961.168    19668178.731                3 
G20  21218970.071                3                                 
G28  22686089.177                    22686084.992                3 
G05  20981750.348                                                  
E26  23696452.026   124525687.151    23696465.285    95415845.216  
> 2023 08 20 19 40 21.9970000  0 14                     
G11  22330087.332                    22330083.131    91438018.289  
G18  21937854.634                    21937861.925    89831904.443  
G29  21035188.883   110540663.332    21035195.172                  
C30  23192447.423   120769162.943  
R09  18319530.978                                                  
R18  23107299.727                    23107307.968                3 
R20  19559205.757                3   19559209.880                3 
R16  19455928.800                3                                 
R19  20123761.390                    20123772.033                1 
G25  19668028.252   103356201.675    19668035.438                3 
G20  21219352.083                3                                 
G28  22685980.155                    22685974.475                3 
G05  20981751.990                                                  
E26  23697041.645   124528785.813    23697054.928    95418219.502  
> 2023 08 20 19 40 22.9970000  0 14                     
G11  22330891.497                    22330887.315    91441311.237  
G18  21937502.471                    21937509.577    89830462.511  
G29  21035276.820   110541125.454    21035283.226                  
C30  23193015.428                  
R09  18319514.739                    18319522.519                3 
R18  23108094.412                    23108101.909                3 
R20  19559297.236                3   19559300.364                3 
R16  19456674.443                3                                 
R19  20124459.625                    20124470.250                  
G25  19667883.923   103355442.526    19667890.806                3 
G20  21219733.298                3                                 
G28  22685871.212                    22685865.642                3 
G05  20981753.452                                                  
E26  23697631.409   124531884.671    23697644.533    95420593.942  
> 2023 08 20 19 40 23.9970000  0 14                     
G11  22331695.779                    22331691.477    91444604.265  
G18  21937150.229                    21937157.424    89829020.769  
G29  21035364.761   110541587.599    21035371.246                  
C30  23193583.435                  
R09  18319498.378                    18319506.925                3 
R18  23108888.350                    23108895.889                3 
R20  19559387.149                3   19559390.077                3 
R16  19457420.082                3                                 
R19  20125157.958                    20125168.608                  
G25  19667739.530   103354683.663    19667747.564                3 
G20  21220116.581                3                                 
G28  22685762.379                    22685757.640                3 
G05  20981755.340   110259866.056                                  
E26  23698221.265   124534983.609    23698234.156    95422968.469  
> 2023 08 20 19 40 24.9970000  0 14                     
G11  22332500.147                    22332495.707    91447897.408  
G18  21936798.018                    21936805.292    89827579.336  
G29  21035452.705   110542049.848    21035459.218                  
C30  23194151.259                  
R09  18319482.414                    18319490.406                3 
R18  23109682.612                    23109689.295                3 
R20  19559477.556                3   19559481.196                3 
R16  19458166.448                3                                 
R19  20125856.359                    20125866.959                  
G25  19667595.139                    19667603.583                3 
G20  21220499.536                3                                 
G28  22685653.768                                                  
G05  20981756.216                                                  
E26  23698810.797   124538082.774    23698823.810    95425343.142  
> 2023 08 20 19 40 25.9970000  0 14                     
G11  22333304.635                    22333299.926    91451190.703  
G18  21936446.401                    21936453.376    89826138.280  
G29  21035540.589   110542512.208    21035547.153                  
C30  23194719.208                  
R09  18319466.784                                                  
R18  23110476.205                    23110482.737                3 
R20  19559568.900                3   19559571.862                3 
R16  19458912.514                3                                 
R19  20126554.742                    20126565.232    83738317.8631 
G25  19667450.820                    19667459.953                3 
G20  21220882.385                3                                 
G28  22685545.224                                                  
G05  20981757.776                                                  
E26  23699400.481   124541182.159    23699413.663    95427718.001  
> 2023 08 20 19 40 26.9970000  0 14                     
G11  22334108.945                    22334104.153                  
G18  21936094.465                    21936101.701    89824697.457  
G29  21035628.611   110542974.649    21035635.016                  
C30  23195287.236                  
R09  18319450.971                                                  
R18  23111271.157                    23111276.859                3 
R20  19559660.342                3   19559662.243                3 
R16  19459657.044                3                                 
R19  20127252.804                3   20127263.577                  
G25  19667306.649   103352409.437    19667317.121                3 
G20  21221262.701                3                                 
G28  22685436.589                                                  
G05  20981759.615                                                  
E26  23699990.394   124544281.683    23700003.443    95430092.954  
> 2023 08 20 19 40 27.9970000  0 14                     
G11  22334913.432                    22334908.524                  
G18  21935742.529                    21935749.988    89823257.167  
G29  21035716.787   110543437.431    21035722.924                  
C30  23195855.162                  
R09  18319435.599                                                  
R18  23112064.058                    23112069.850                3 
R20  19559751.308                3   19559754.097                3 
R16  19460404.575                3                                 
R19  20127952.856                2   20127961.959                  
G25  19667162.509   103351652.342    19667172.556                3 
G20  21221647.390                3                                 
G28  22685328.015                                                  
G05  20981761.539                                                  
E26  23700580.023   124547381.673    23700593.159    95432468.297  
> 2023 08 20 19 40 28.9970000  0 14                     
G11  22335717.790   117374935.950    22335712.859                  
G18  21935390.862                    21935398.502    89821817.009  
G29  21035804.950   110543900.239    21035811.052                  
C30  23196422.844                  
R09  18319420.344                                                  
R18  23112858.437                    23112863.872                3 
R20  19559842.566                3   19559845.279                3 
R16  19461152.184                3                                 
R19  20128652.626                1   20128660.545                  
G25  19667018.622   103350895.501    19667027.415                3 
G20  21222030.578                3                                 
G28  22685219.695                                                  
G05  20981763.514                                                  
E26  23701169.959   124550481.754    23701183.287    95434843.669  
> 2023 08 20 19 40 29.9970000  0 15                     
G11  22336522.097                    22336517.289                  
G18  21935039.281                    21935046.862    89820377.279  
G29  21035893.022   110544363.171    21035899.207                  
C30  23196990.692                  
R09  18319405.266                                                  
R18  23113652.640                    23113659.375                3 
R20  19559933.811                3   19559935.294                3 
R16  19461898.341                3                                 
R19  20129351.044                    20129359.001                  
G25  19666874.838                    19666883.206                3 
G20  21222412.686                3                                 
G28  22685111.490                                                  
G05  20981765.456   110259920.611                                  
E26  23701759.726   124553582.086    23701773.343    95437219.260  
R10                                  21215645.911                3 
> 2023 08 20 19 40 30.9970000  0 14                     
G11  22337326.620                    22337321.715                  
G18  21934687.886                    21934695.256    89818937.831  
G29  21035981.265   110544826.243    21035987.483                  
C30  23197558.738                  
R09  18319390.455                                                  
R18  23114446.847                    23114454.197                3 
R20  19560025.350                3   19560026.611                3 
R16  19462645.197                3                                 
R19  20130049.017                    20130057.609                  
G25  19666730.972                    19666738.461                3 
G20  21222795.845                3                                 
G28  22685003.451                                                  
G05  20981767.438   110259931.687                                  
E26  23702349.619   124556682.620    23702363.304    95439594.997  
> 2023 08 20 19 40 31.9970000  0 14                     
G11  22338131.186                    22338126.189                  
G18  21934336.337                    21934343.832    89817498.609  
G29  21036069.344   110545289.312    21036075.429                  
C30  23198126.706                  
R09  18319375.495                                                  
R18  23115241.913                    23115246.957                3 
R20  19560116.918                3   19560118.755                3 
R16  19463391.376                3                                 
R19  20130748.831                    20130756.206                  
G25  19666587.178                    19666594.197                3 
G20  21223179.491                3                                 
G28  22684895.285                                                  
G05  20981769.534   110259943.209                                  
E26  23702939.600   124559783.276    23702953.212    95441970.811  
> 2023 08 20 19 40 32.9970000  0 14                     
G11  22338935.797                    22338930.729    91474248.021  
G18  21933984.997                    21933992.527    89816059.723  
G29  21036157.511   110545752.501    21036163.384                  
C30  23198694.632                  
R09  18319360.697                                                  
R18  23116035.968                    23116038.771                3 
R20  19560209.410                3   19560210.406                3 
R16  19464138.968                3                                 
R19  20131446.792                    20131454.859                  
G25  19666443.231   103347872.172    19666448.967                3 
G20  21223561.152                3                                 
G28  22684787.392                                                  
G05  20981771.785                                                  
E26  23703529.476   124562884.121    23703543.376    95444346.799  
> 2023 08 20 19 40 33.9970000  0 14                     
G11  22339740.259                    22339735.258                  
G18  21933633.615                    21933641.438    89814621.113  
G29  21036245.539   110546215.789    21036251.530                  
C30  23199262.676                  
R09  18319346.257                                                  
R18  23116830.430                    23116832.951                3 
R20  19560301.014                3   19560301.731                3 
R16  19464885.603                3                                 
R19  20132144.697                    20132153.529                  
G25  19666299.564                    19666306.360                3 
G20  21223944.203                3                                 
G28  22684679.614                                                  
G05  20981774.211                                                  
E26  23704119.512   124565985.160    23704133.571    95446722.921  
> 2023 08 20 19 40 34.9970000  0 14                     
G11  22340544.928                    22340539.797                  
G18  21933282.416                    21933289.908    89813182.750  
G29  21036333.788   110546679.110    21036339.624                  
C30  23199830.431                  
R09  18319331.681                                                  
R18  23117624.185                    23117626.611                3 
R20  19560392.353                3   19560393.014                3 
R16  19465632.470                3                                 
R19  20132843.210                    20132852.204                  
G25  19666156.021                    19666162.341                3 
G20  21224327.321                3                                 
G28  22684571.795                                                  
G05  20981776.848                                                  
E26  23704709.650   124569086.302    23704723.630    95449099.147  
> 2023 08 20 19 40 35.9970000  0 14                     
G11  22341349.340                    22341344.332                  
G18  21932931.307                    21932938.654    89811744.582  
G29  21036421.847   110547142.407    21036427.806                  
C30  23200398.312                  
R09  18319317.424                    18319327.241                3 
R18  23118417.003                    23118420.359                3 
R20  19560483.272                3   19560484.330                3 
R16  19466380.095                3                                 
R19  20133541.893                    20133550.802                  
G25  19666012.358   103345608.291    19666017.820                3 
G20  21224713.285                3                                 
G28  22684464.180   119207611.7461                                 
G05  20981779.479                                                  
E26  23705299.754   124572187.582    23705313.790    95451475.425  
> 2023 08 20 19 40 36.9970000  0 14                     
G11  22342153.939                    22342148.913    91487425.992  
G18  21932580.089                    21932587.810    89810306.772  
G29  21036510.126   110547605.834    21036515.936                  
C30  23200966.297                  
R09  18319303.313                                                  
R18  23119211.732                3   23119214.802                3 
R20  19560575.420                3   19560575.453                3 
R16  19467127.806                3                                 
R19  20134240.511                    20134249.595                  
G25  19665868.792                    19665874.045                3 
G20  21225098.582                3                                 
G28  22684356.658   119207046.451                                  
G05  20981782.115                                                  
E26  23705889.845   124575289.049    23705903.856    95453851.863  
> 2023 08 20 19 40 37.9970000  0 14                     
G11  22342958.529                    22342953.577                  
G18  21932229.035                    21932236.694    89808869.287  
G29  21036598.326   110548069.427    21036604.178                  
C30  23201534.000                  
R09  18319289.357                                                  
R18  23120004.256                2   23120008.760                3 
R20  19560668.665                3   19560667.879                3 
R16  19467875.149                3                                 
R19  20134939.116                    20134948.210                  
G25  19665725.361   103344100.799    19665730.875                3 
G20  21225482.128                3                                 
G28  22684249.297   119206481.764                                  
G05  20981784.984                                                  
E26  23706479.876   124578390.765    23706494.345    95456228.512  
> 2023 08 20 19 40 38.9970000  0 14                     
G11  22343763.168                    22343758.222                  
G18  21931878.090                    21931885.607    89807432.051  
G29  21036686.595   110548533.065    21036692.270                  
C30  23202101.814                  
R09  18319275.441                                                  
R18  23120799.456                1   23120803.194                3 
R20  19560762.881                3   19560761.024                3 
R16  19468623.206                3                                 
R19  20135637.901                    20135647.107                  
G25  19665582.079                    19665588.605                3 
G20  21225866.926                3                                 
G28  22684142.198                                                  
G05  20981787.853                                                  
E26  23707070.215   124581492.636    23707084.528    95458605.275  
> 2023 08 20 19 40 39.9970000  0 14                     
G11  22344567.833                    22344563.000                  
G18  21931527.204                    21931534.756    89805995.255  
G29  21036774.811   110548996.948    21036780.623                  
C30  23202669.762                  
R09  18319261.608                                                  
R18  23121590.015                    23121597.656                3 
R20  19560854.834                3   19560853.315                3 
R16  19469371.148                3                                 
R19  20136336.643                    20136345.815    83779008.315  
G25  19665438.962   103342594.995    19665446.329                3 
G20  21226251.823                3                                 
G28  22684035.020                                                  
G05  20981791.013                                                  
E26  23707660.514   124584594.792    23707674.906    95460982.256  
> 2023 08 20 19 40 40.9970000  0 15                     
G11  22345372.419   117425672.073    22345367.724    91500606.255  
G18  21931176.322                    21931183.751    89804558.775  
G29  21036863.255   110549460.997    21036869.096                  
C30  23203237.667                  
R09  18319248.235                                                  
R18  23122385.218                    23122390.313                3 
R20  19560947.011                3   19560945.612                3 
R16  19470119.761                3                                 
R19  20137035.427                    20137044.490                  
G25  19665295.899                    19665303.643                3 
G20  21226638.103                3                                 
G28  22683927.699                                                  
G05  20981793.947                                                  
E26  23708250.686   124587697.255    23708265.369    95463359.474  
R10                                  21209173.164                3 
> 2023 08 20 19 40 41.9970000  0 15                     
G11  22346177.233                    22346172.580    91503901.609  
G18  21930825.671                    21930833.006    89803122.546  
G29  21036951.559   110549925.024    21036957.297                  
C30  23203805.422                  
R09  18319234.940                                                  
R18  23123180.183                3   23123183.633                3 
R20  19561038.375                3   19561038.321                3 
R16  19470869.230                3                                 
R19  20137734.307                    20137743.170                  
G25  19665152.807                    19665160.740                3 
G20  21227022.643                3                                 
G28  22683820.827                                                  
G05  20981797.203                                                  
E26  23708841.203   124590799.779    23708855.632    95465736.738  
R10                                  21208525.920                3 
> 2023 08 20 19 40 42.9970000  0 15                     
G11  22346982.056                    22346977.426    91507197.058  
G18  21930474.897                    21930482.182    89801686.612  
G29  21037039.824   110550389.143    21037045.328                  
C30  23204373.192                  
R09  18319220.804                3                                 
R18  23123973.453                3   23123978.113                3 
R20  19561129.937                3   19561131.625                3 
R16  19471618.159                3                                 
R19  20138433.234                    20138441.844                  
G25  19665009.959   103340339.275    19665018.031                3 
G20  21227409.487                3                                 
G28  22683714.111                                                  
G05  20981800.411                                                  
E26  23709431.564   124593902.566    23709446.130    95468114.164  
R10                                  21207903.333                3 
> 2023 08 20 19 40 43.9970000  0 15                     
G11  22347786.988                    22347782.333    91510492.596  
G18  21930124.212                    21930131.556    89800250.886  
G29  21037128.246   110550853.343    21037133.590                  
C30  23204940.975                  
R09  18319206.463                3                                 
R18  23124767.209                3   23124771.587                3 
R20  19561221.688                3   19561223.839                3 
R16  19472366.631                3                                 
R19  20139132.176                    20139140.664                  
G25  19664866.955                    19664875.664                3 
G20  21227796.636                3                                 
G28  22683607.416                                                  
G05  20981803.788                                                  
E26  23710022.146   124597005.396    23710036.650    95470491.694  
R10                                  21207245.515                3 
> 2023 08 20 19 40 44.9970000  0 13                     
G11  22348591.741                    22348587.139                  
G18  21929773.759                    21929781.012    89798815.354  
G29  21037216.580   110551317.406    21037221.855                  
C30  23205508.693                  
R18  23125558.543                3   23125566.127                3 
R20  19561313.964                3   19561316.909                3 
R16  19473113.103                3                                 
R19  20139830.996                    20139839.441                  
G25  19664724.061   103338836.918    19664731.956                3 
G20  21228184.508                3                                 
G28  22683500.684                                                  
G05  20981806.839                                                  
E26  23710612.452   124600108.247    23710626.935    95472869.204  
> 2023 08 20 19 40 45.9970000  0 13                     
G11  22349396.638                    22349391.937                  
G18  21929423.445                    21929430.387    89797380.099  
G29  21037304.915   110551781.575    21037310.308                  
C30  23206076.381                  
R18  23126351.990                3   23126361.182                3 
R20  19561407.063                3   19561410.735                3 
R16  19473862.924                3                                 
R19  20140529.858                    20140538.348                  
G25  19664581.247                    19664587.832                3 
G20  21228572.332                3                                 
G28  22683393.876                                                  
G05  20981810.507                                                  
E26  23711203.131   124603211.251    23711217.488    95475246.860  
> 2023 08 20 19 40 46.9970000  0 13                     
G11  22350201.268                    22350196.821    91520379.523  
G18  21929073.074                    21929079.863    89795945.098  
G29  21037393.300   110552245.780    21037398.708                  
C30  23206644.066                  
R18  23127145.076                3                                 
R20  19561500.893                3   19561503.484                3 
R16  19474611.949                3                                 
R19  20141228.695                    20141237.296                  
G25  19664438.427   103337335.832    19664444.235                3 
G20  21228958.584                3                                 
G28  22683287.230                                                  
G05  20981814.029                                                  
E26  23711793.367   124606314.433    23711807.987    95477624.607  
> 2023 08 20 19 40 47.9970000  0 13                     
G11  22351006.088                    22351001.909    91523675.347  
G18  21928722.694                    21928729.354    89794510.402  
G29  21037481.658   110552710.047    21037487.089                  
C30  23207211.942                  
R18  23127937.811                3   23127948.399                3 
R20  19561593.420                3   19561595.028                3 
R16  19475361.195                3                                 
R19  20141927.548                    20141936.178                  
G25  19664295.635   103336585.835    19664303.375                3 
G20  21229345.262                3                                 
G28  22683180.763                                                  
G05  20981817.622                                                  
E26  23712383.974   124609417.805    23712398.441    95480002.491  
> 2023 08 20 19 40 48.9970000  0 13                     
G11  22351811.074                    22351806.817    91526971.320  
G18  21928372.251                    21928378.963    89793075.985  
G29  21037569.976   110553174.470    21037575.433                  
C30  23207779.447                  
R18  23128729.851                3   23128742.510                2 
R20  19561686.161                3   19561688.331                3 
R16  19476112.231                3                                 
R19  20142626.329                    20142635.093                  
G25  19664153.011                    19664159.677                3 
G20  21229733.252                3                                 
G28  22683074.382                                                  
G05  20981821.412                                                  
E26  23712974.591   124612521.362    23712989.050    95482380.532  
> 2023 08 20 19 40 49.9970000  0 13                     
G11  22352615.932                    22352611.656                  
G18  21928022.198                    21928028.812    89791642.014  
G29  21037658.504   110553639.095    21037663.800                  
C30  23208347.362                  
R18  23129521.613                3   23129536.295                2 
R20  19561779.086                3   19561781.739                3 
R16  19476860.680                3                                 
R19  20143325.252                    20143333.921                  
G25  19664010.671                    19664016.768                3 
G20  21230122.174                3                                 
G28  22682968.157                                                  
G05  20981825.452                                                  
E26  23713565.029   124615625.246    23713579.718    95484758.848  
> 2023 08 20 19 40 50.9970000  0 14                     
G11  22353420.898                    22353416.685                  
G18  21927672.065                    21927678.551    89790208.209  
G29  21037746.827   110554103.746    21037752.102                  
C30  23208915.187                  
R18  23130315.092                3   23130330.495                3 
R20  19561873.038                3   19561875.018                3 
R16  19477610.313                3                                 
R19  20144024.293                    20144032.741    83810992.552  
G25  19663868.457                    19663873.989                3 
G20  21230510.675                3                                 
G28  22682861.888                                                  
G05  20981829.445                                                  
E26  23714155.888   124618729.221    23714170.222    95487137.227  
R10                                  21204071.930                3 
> 2023 08 20 19 40 51.9970000  0 14                     
G11  22354225.842                    22354221.776                  
G18  21927321.958                    21927328.591    89788774.778  
G29  21037835.337   110554568.556    21037840.427                  
C30  23209483.001                  
R18  23131107.811                3   23131123.684                2 
R20  19561964.638                3   19561968.068                3 
R19  20144723.185                    20144731.589                  
G25  19663725.962                    19663731.576                3 
G20  21230897.646                3                                 
G28  22682755.749                                                  
G05  20981833.633                                                  
E26  23714746.291   124621833.454    23714761.080    95489515.784  
E31                                  24246346.097                1 
R10                                  21203476.739                3 
> 2023 08 20 19 40 52.9970000  0 14                     
G11  22355030.784                    22355026.770                  
G18  21926971.953                    21926978.583    89787341.753  
G29  21037923.777   110555033.518    21037928.747                  
C30  23210050.780                  
R18  23131899.515                3   23131917.946                  
R20  19562057.825                3   19562062.743                3 
R19  20145422.370                    20145430.745                  
G25  19663583.759   103332841.917    19663589.422                3 
G20  21231284.647                3                                 
G28  22682649.879                                                  
G05  20981837.778                                                  
E26  23715336.995   124624937.947    23715351.972    95491894.563  
E31                                  24246122.647    97629088.4341 
R10                                  21202824.928                3 
> 2023 08 20 19 40 53.9970000  0 14                     
G11  22355835.977                    22355831.656                  
G18  21926622.082                    21926628.478    89785908.906  
G29  21038012.351   110555498.521    21038017.411                  
C30  23210618.545                  
R18  23132693.337                3   23132709.939                  
R20  19562150.907                3   19562155.117                3 
R19  20146121.366                    20146129.868    83819717.769  
G25  19663441.594   103332094.304    19663446.485                3 
G20  21231670.968                3                                 
G28  22682544.217                                                  
G05  20981842.279                                                  
E26  23715927.832   124628042.570    23715942.762    95494273.408  
E31                                  24245898.430    97628189.080  
R10                                  21202191.711                3 
> 2023 08 20 19 40 54.9970000  0 15                     
G11  22356641.032                    22356636.571                  
G18  21926272.400                    21926278.577    89784476.347  
G12  19968816.563                3                                 
G29  21038100.682   110555963.542    21038105.822                  
C30  23211186.305                  
R18  23133484.181                3   23133502.937                  
R20  19562244.530                3   19562248.698                3 
R19  20146820.405                    20146828.953    83822626.301  
G25  19663299.279   103331346.979    19663304.550                3 
G20  21232058.300                3                                 
G28  22682438.567                                                  
G05  20981846.813                                                  
E26  23716518.540   124631147.279    23716533.659    95496652.368  
E31                                  24245675.112    97627289.748  
R10                                  21201540.069                3 
> 2023 08 20 19 40 55.9970000  0 15                     
G11  22357446.279                    22357441.789                  
G18  21925922.432                    21925928.730    89783044.112  
G12  19969130.197                3                                 
G29  21038189.066   110556428.677    21038194.319                  
C30  23211754.024                  
R18  23134275.351                3   23134296.280                  
R20  19562337.789                3   19562342.584                3 
G25  19663157.190   103330600.042    19663162.893                3 
G20  21232445.219                3                                 
G28  22682333.195                                                  
G05  20981851.719                                                  
E26  23717109.248   124634252.250    23717124.619    95499031.507  
E31                                  24245452.103    97626390.485  
R19                                  20147528.002    83825534.968  
R10                                  21200861.889                3 
> 2023 08 20 19 40 56.9970000  0 14                     
G11  22358251.467                    22358247.031                  
G18  21925572.774                    21925578.763    89781612.140  
G12  19969439.276                3                                 
G29  21038277.510   110556893.953    21038282.874                  
C30  23212321.974                  
R18  23135067.523                3   23135089.502                  
R20  19562430.581                3   19562436.492                3 
G25  19663015.175   103329853.532    19663020.390                3 
G20  21232831.719                3                                 
G28  22682227.627                                                  
G05  20981855.777                3                                 
E26  23717700.050   124637357.395    23717715.616    95501410.758  
E31                                  24245228.700    97625491.374  
R19                                  20148227.147                  
> 2023 08 20 19 40 57.9970000  0 16                     
G11  22359056.465                    22359052.140                  
G18  21925223.270                    21925229.137    89780180.471  
G12  19969751.362                3                                 
G29  21038366.024   110557359.280    21038371.468                  
C30  23212889.578                  
R09  18319040.337                3                                 
R18  23135858.642                3   23135882.131                  
R20  19562524.039                3   19562530.237                3 
G25  19662873.163   103329107.354    19662877.947                3 
G20  21233218.377                3                                 
G28  22682122.316                                                  
G05  20981858.968                3                                 
E26  23718290.703   124640462.691    23718306.395    95503790.156  
E12                                  25472920.308                3 
E31                                  24245005.460    97624592.304  
R19                                  20148926.268    83831352.615  
> 2023 08 20 19 40 58.9970000  0 17                     
G11  22359861.650                    22359857.622                  
G18  21924873.885                    21924879.520    89778749.214  
G12  19970063.475                3                                 
G29  21038454.619   110557824.815    21038460.073                  
C30  23213457.249                  
R09  18319031.118                3                                 
R18  23136650.247                3   23136674.541                3 
R20  19562619.348                3   19562624.117                3 
G25  19662731.211   103328361.717    19662735.373                3 
G20  21233606.189                3                                 
G28  22682017.016                                                  
G05  20981862.717                3                                 
E26  23718881.654   124643568.317    23718897.381    95506169.790  
E12                                  25472701.821                3 
E31                                  24244782.367    97623693.452  
R19                                  20149625.602                  
R10                                  21198817.071                3 
> 2023 08 20 19 40 59.9970000  0 17                     
G11  22360666.995                    22360662.911                  
G18  21924524.334                    21924530.104    89777318.352  
G12  19970378.496                3                                 
G29  21038543.229   110558290.664    21038548.633                  
C30  23214025.027                  
R09  18319021.719                3                                 
R18  23137441.633                3   23137466.969                3 
R20  19562714.142                3   19562719.047                3 
G25  19662589.441   103327616.537    19662593.816                3 
G20  21233994.134                3                                 
G28  22681912.660                3                                 
G05  20981867.862                3                                 
E26  23719472.601   124646674.294    23719488.427    95508549.691  
E12                                  25472483.696                3 
E31                                  24244559.348    97622794.775  
R19                                  20150324.953    83837170.975  
R10                                  21198202.173                3 
> 2023 08 20 19 41 00.9970000  0 18                     
G11  22361472.323                    22361468.413                  
G18  21924174.879                    21924180.782    89775887.854  
G12  19970690.150                3                                 
G29  21038631.869   110558756.666    21038637.295                  
C30  23214593.070                  
R09  18319011.756                3                                 
R18  23138234.211                3   23138259.444                3 
R20  19562808.813                3   19562813.147                3 
R16  19485115.776                3                                 
G25  19662448.033                    19662452.103                3 
G20  21234382.102                3                                 
G28  22681807.569                3                                 
G05  20981872.604                3                                 
E26  23720063.632   124649780.555    23720079.554    95510929.829  
E12                                  25472264.310                3 
E31                                  24244336.254    97621896.300  
R19                                  20151024.296    83840080.482  
R10                                  21197675.592                3 
> 2023 08 20 19 41 01.9970000  0 18                     
G11  22362277.707                    22362273.708    91569831.610  
G18  21923825.701                    21923831.296    89774457.584  
G12  19971000.807                3                                 
G29  21038720.386   110559222.589    21038725.864                  
C30  23215160.846                  
R09  18319002.672                3                                 
R18  23139026.061                3   23139050.942                3 
R20  19562904.251                3   19562908.161                3 
R16  19485865.404                3                                 
G25  19662306.310   103326127.416    19662310.572                3 
G20  21234768.669                3                                 
G28  22681702.133                3                                 
G05  20981876.410                3                                 
E26  23720654.804   124652886.853    23720670.677    95513309.974  
E12                                  25472045.459                3 
E31                                  24244113.026    97620997.781  
R19                                  20151723.418    83842989.918  
R10                                  21197134.622                3 
> 2023 08 20 19 41 02.9970000  0 18                     
G11  22363083.062                    22363079.155    91573129.387  
G18  21923476.588                    21923481.924    89773027.471  
G12  19971309.627                3                                 
G29  21038809.034   110559688.452    21038814.545                  
C30  23215728.806                  
R09  18318991.105                3                                 
R18  23139818.029                3   23139844.732                3 
R20  19562997.818                3   19563002.068                3 
R16  19486615.874                3                                 
G25  19662164.575   103325383.199    19662169.471                3 
G20  21235155.224                3                                 
G28  22681596.907                3                                 
G05  20981882.479                3                                 
E26  23721245.938   124655993.174    23721261.718    95515690.137  
E12                                  25471827.148                3 
E31                                  24243889.877    97620099.226  
R19                                  20152422.718    83845899.378  
R10                                  21196524.781                3 
> 2023 08 20 19 41 03.9970000  0 18                     
G11  22363888.565                    22363884.536                  
G18  21923127.432                    21923132.627    89771597.680  
G12  19971619.273                3                                 
G29  21038897.589   110560154.487    21038903.305                  
C30  23216296.456                  
R09  18318981.110                3                                 
R18  23140610.656                3   23140638.149                3 
R20  19563091.395                3   19563097.045                3 
R16  19487366.621                3                                 
G25  19662023.105   103324639.421    19662027.811                3 
G20  21235541.348                3                                 
G28  22681490.969                3                                 
G05  20981889.830                3                                 
E26  23721837.116   124659099.744    23721852.804    95518070.508  
E12                                  25471608.390                3 
E31                                  24243666.654    97619200.837  
R19                                  20153121.972    83848808.940  
R10                                  21195965.143                3 
> 2023 08 20 19 41 04.9970000  0 18                     
G11  22364693.994                    22364689.960                  
G18  21922778.435                    21922783.302    89770168.329  
G12  19971931.683                3                                 
G29  21038986.267   110560620.797    21038992.251                  
C30  23216864.438                  
R09  18318971.777                3                                 
R18  23141403.065                3   23141430.711                3 
R20  19563186.260                3   19563191.237                3 
R16  19488115.701                3                                 
G25  19661881.695   103323896.221    19661886.718                3 
G20  21235928.213                3                                 
G28  22681385.696                3                                 
G05  20981896.043                3                                 
E26  23722428.132   124662206.677    23722444.022    95520451.151  
E12                                  25471390.096                3 
E31                                  24243443.625    97618302.653  
R19                                  20153821.253                  
R10                                  21195459.956                3 
> 2023 08 20 19 41 05.9970000  0 17                     
G11  22365499.461                    22365495.380                  
G18  21922429.671                    21922434.058    89768739.275  
G29  21039074.969   110561087.232    21039080.979                  
C30  23217432.269                  
R09  18318962.191                3                                 
R18  23142194.433                3   23142224.546                3 
R20  19563280.855                3   19563287.392                3 
R16  19488866.687                3                                 
G25  19661740.204   103323153.336    19661745.842                3 
G20  21236316.507                3                                 
G28  22681280.221                3                                 
G05  20981901.044                3                                 
E26  23723019.348   124665313.790    23723035.422    95522831.913  
E12                                  25471172.057                3 
E31                                  24243220.541    97617404.588  
R19                                  20154520.816    83854628.726  
R10                                  21194961.225                3 
> 2023 08 20 19 41 06.9970000  0 17                     
G11  22366304.840                    22366300.821                  
G18  21922080.926                    21922085.004    89767310.571  
G29  21039163.544   110561553.763    21039169.753                  
C30  23218000.141                  
R09  18318951.536                3                                 
R18  23142987.042                3   23143017.675                2 
R20  19563376.454                3   19563382.823                3 
R16  19489617.165                3                                 
G25  19661598.926                    19661604.863                3 
G20  21236703.750                3                                 
G28  22681175.262                3                                 
G05  20981907.682                3                                 
E26  23723610.762   124668421.153    23723626.806    95525212.909  
E12                                  25470953.611                3 
E31                                  24242997.662    97616506.640  
R19                                  20155220.345    83857538.808  
R10                                  21194403.272                3 
> 2023 08 20 19 41 07.9970000  0 17                     
G11  22367110.114                    22367106.220                  
G18  21921731.998                    21921736.088    89765882.143  
G29  21039252.358   110562020.393    21039258.592                  
C30  23218568.040                  
R09  18318942.003                3                                 
R18  23143778.738                3   23143811.824                2 
R20  19563472.893                3   19563478.513                3 
R16  19490366.912                3                                 
G25  19661457.675   103321668.874    19661463.641                3 
G20  21237091.208                3                                 
G28  22681072.357                3                                 
G05  20981914.777                3                                 
E26  23724202.225   124671528.723    23724218.209    95527593.986  
E12                                  25470735.146                3 
E31                                  24242774.795    97615608.764  
R19                                  20155919.734    83860448.966  
R10                                  21193791.146                3 
> 2023 08 20 19 41 08.9970000  0 18                     
G11  22367915.842                    22367911.774                  
G18  21921383.144                    21921387.155    89764453.992  
G29  21039341.047   110562487.026    21039347.488                  
C30  23219135.846                  
R09  18318931.715                3                                 
R18  23144570.560                3   23144603.947                  
