% program   : RTKPOST ver.demo5 b33a
% inp file  : D:\Dropbox\matlab\INS\data\20200410_unicamp\helicoidal\gnss_logger_dat-2020-04-13-14-40-04.obs
% inp file  : D:\Dropbox\matlab\INS\data\20200410_unicamp\helicoidal\base\gnss_logger_dat-2020-04-13-13-42-41.obs
% inp file  : D:\Dropbox\matlab\INS\data\20200410_unicamp\helicoidal\base\gnss_logger_dat-2020-04-13-13-42-41.nav
% obs start : 2020/04/13 14:40:24.0 GPST (week2101 139224.0s)
% obs end   : 2020/04/13 15:13:55.0 GPST (week2101 141235.0s)
% pos mode  : kinematic
% freqs     : L1+L2/E5b
% solution  : combined
% elev mask : 20.0 deg
% dynamics  : on
% tidecorr  : off
% ionos opt : broadcast
% tropo opt : saastamoinen
% ephemeris : broadcast
% navi sys  : gps glonass galileo
% amb res   : fix and hold
% amb glo   : fix and hold
% val thres : 3.0
% antenna1  :                       ( 0.0000  0.0000  0.0000)
% antenna2  :                       ( 0.0000  0.0000  2.1050)
% ref pos   :  4006965.3539  -4306981.2776  -2457952.1479
%
% (x/y/z-ecef=WGS84,Q=1:fix,2:float,3:sbas,4:dgps,5:single,6:ppp,ns=# of satellites)
%  GPST              x-ecef(m)      y-ecef(m)      z-ecef(m)   Q  ns   sdx(m)   sdy(m)   sdz(m)  sdxy(m)  sdyz(m)  sdzx(m) age(s)  ratio
2101 139224.000   4006966.5203  -4306990.2504  -2457935.3058   1   8   0.0099   0.0108   0.0088  -0.0083   0.0071  -0.0063   0.00   39.3
2101 139225.000   4006966.5229  -4306990.2500  -2457935.3038   1   8   0.0099   0.0108   0.0088  -0.0083   0.0071  -0.0063   0.00   39.1
2101 139226.000   4006966.5182  -4306990.2479  -2457935.3023   1   8   0.0099   0.0108   0.0087  -0.0083   0.0071  -0.0063   0.00   38.9
2101 139227.000   4006966.5189  -4306990.2492  -2457935.3027   1  10   0.0098   0.0108   0.0085  -0.0084   0.0072  -0.0061   0.00   39.0
2101 139228.000   4006966.5214  -4306990.2477  -2457935.3013   1  10   0.0098   0.0108   0.0085  -0.0084   0.0072  -0.0061   0.00   38.9
2101 139229.000   4006966.5201  -4306990.2503  -2457935.3050   1  10   0.0098   0.0108   0.0085  -0.0084   0.0072  -0.0061   0.00   38.7
2101 139230.000   4006966.5233  -4306990.2500  -2457935.3018   1  10   0.0098   0.0108   0.0085  -0.0084   0.0072  -0.0061   0.00   38.4
2101 139231.000   4006966.5205  -4306990.2477  -2457935.3027   1  10   0.0098   0.0108   0.0085  -0.0084   0.0072  -0.0061   0.00   38.2
2101 139232.000   4006966.5235  -4306990.2501  -2457935.3031   1  10   0.0098   0.0108   0.0085  -0.0084   0.0072  -0.0061   0.00   38.0
2101 139233.000   4006966.5210  -4306990.2473  -2457935.3042   1  10   0.0098   0.0108   0.0085  -0.0084   0.0072  -0.0061   0.00   37.7
2101 139234.000   4006966.5169  -4306990.2452  -2457935.3030   1  10   0.0098   0.0108   0.0085  -0.0084   0.0072  -0.0061   0.00   37.5
2101 139235.000   4006966.5185  -4306990.2472  -2457935.3035   1  10   0.0098   0.0108   0.0085  -0.0084   0.0072  -0.0061   0.00   37.2
2101 139236.000   4006966.5178  -4306990.2479  -2457935.3046   1  10   0.0098   0.0108   0.0085  -0.0084   0.0072  -0.0061   0.00   36.9
2101 139237.000   4006966.5163  -4306990.2452  -2457935.3024   1  10   0.0098   0.0108   0.0085  -0.0084   0.0072  -0.0061   0.00   36.7
2101 139238.000   4006966.5170  -4306990.2494  -2457935.3023   1  10   0.0098   0.0108   0.0085  -0.0084   0.0072  -0.0061   0.00   36.5
2101 139239.000   4006966.5174  -4306990.2463  -2457935.3015   1  10   0.0098   0.0108   0.0085  -0.0084   0.0072  -0.0061   0.00   36.3
2101 139240.000   4006966.5187  -4306990.2472  -2457935.3021   1  10   0.0098   0.0108   0.0085  -0.0084   0.0072  -0.0061   0.00   36.1
2101 139241.000   4006966.5172  -4306990.2448  -2457935.3031   1  10   0.0098   0.0108   0.0085  -0.0084   0.0072  -0.0061   0.00   35.9
2101 139242.000   4006966.5179  -4306990.2497  -2457935.3031   1  10   0.0098   0.0108   0.0085  -0.0084   0.0072  -0.0061   0.00   35.7
2101 139243.000   4006966.5174  -4306990.2453  -2457935.3035   1  10   0.0098   0.0108   0.0085  -0.0084   0.0072  -0.0061   0.00   35.6
2101 139244.000   4006966.5189  -4306990.2454  -2457935.3036   1  10   0.0098   0.0108   0.0085  -0.0084   0.0072  -0.0061   0.00   35.3
2101 139245.000   4006966.5181  -4306990.2508  -2457935.3090   1  10   0.0098   0.0108   0.0085  -0.0084   0.0072  -0.0061   0.00   35.1
2101 139246.000   4006966.5182  -4306990.2482  -2457935.3056   1  10   0.0098   0.0108   0.0085  -0.0084   0.0072  -0.0061   0.00   34.8
2101 139247.000   4006966.5199  -4306990.2509  -2457935.3082   1  10   0.0098   0.0108   0.0085  -0.0084   0.0072  -0.0061   0.00   34.6
2101 139248.000   4006966.5171  -4306990.2504  -2457935.3063   1  10   0.0098   0.0108   0.0085  -0.0084   0.0072  -0.0061   0.00   34.5
2101 139249.000   4006966.5208  -4306990.2506  -2457935.3042   1  10   0.0098   0.0108   0.0085  -0.0084   0.0072  -0.0061   0.00   34.2
2101 139250.000   4006966.5189  -4306990.2485  -2457935.3058   1  10   0.0098   0.0108   0.0085  -0.0084   0.0072  -0.0061   0.00   34.0
2101 139251.000   4006966.5188  -4306990.2528  -2457935.3092   1  10   0.0098   0.0108   0.0085  -0.0084   0.0072  -0.0061   0.00   33.8
2101 139252.000   4006966.5172  -4306990.2481  -2457935.3037   1  10   0.0098   0.0108   0.0085  -0.0084   0.0072  -0.0061   0.00   33.7
2101 139253.000   4006966.5222  -4306990.2526  -2457935.3074   1  10   0.0098   0.0108   0.0085  -0.0084   0.0072  -0.0061   0.00   33.4
2101 139254.000   4006966.5199  -4306990.2518  -2457935.3080   1  10   0.0098   0.0108   0.0085  -0.0084   0.0072  -0.0061   0.00   33.2
2101 139255.000   4006966.5207  -4306990.2469  -2457935.3037   1  10   0.0098   0.0108   0.0084  -0.0084   0.0072  -0.0061   0.00   33.0
2101 139256.000   4006966.5225  -4306990.2521  -2457935.3095   1  10   0.0098   0.0108   0.0084  -0.0084   0.0072  -0.0061   0.00   32.8
2101 139257.000   4006966.5259  -4306990.2526  -2457935.3073   1  10   0.0098   0.0108   0.0084  -0.0084   0.0072  -0.0061   0.00   32.7
2101 139258.000   4006966.5262  -4306990.2489  -2457935.3057   1  10   0.0098   0.0108   0.0084  -0.0084   0.0072  -0.0061   0.00   32.6
2101 139259.000   4006966.5265  -4306990.2492  -2457935.3056   1  10   0.0098   0.0108   0.0084  -0.0084   0.0072  -0.0061   0.00   32.5
2101 139260.000   4006966.5246  -4306990.2538  -2457935.3133   1  10   0.0098   0.0108   0.0084  -0.0084   0.0072  -0.0061   0.00   32.5
2101 139261.000   4006966.5256  -4306990.2499  -2457935.3064   1  10   0.0098   0.0108   0.0084  -0.0084   0.0072  -0.0061   0.00   32.4
2101 139262.000   4006966.5216  -4306990.2477  -2457935.3080   1  10   0.0098   0.0108   0.0084  -0.0084   0.0072  -0.0061   0.00   32.3
2101 139263.000   4006966.5233  -4306990.2465  -2457935.3049   1  10   0.0098   0.0108   0.0084  -0.0084   0.0072  -0.0061   0.00   32.3
2101 139264.000   4006966.5235  -4306990.2468  -2457935.3047   1  10   0.0098   0.0108   0.0084  -0.0084   0.0072  -0.0061   0.00   32.3
2101 139265.000   4006966.5237  -4306990.2459  -2457935.3019   1  10   0.0098   0.0108   0.0084  -0.0084   0.0072  -0.0061   0.00   32.2
2101 139266.000   4006966.5214  -4306990.2498  -2457935.3073   1  10   0.0098   0.0108   0.0084  -0.0084   0.0072  -0.0061   0.00   32.1
2101 139267.000   4006966.5219  -4306990.2448  -2457935.3002   1  10   0.0098   0.0108   0.0084  -0.0084   0.0072  -0.0061   0.00   32.1
2101 139268.000   4006966.5191  -4306990.2490  -2457935.3068   1  10   0.0098   0.0108   0.0084  -0.0084   0.0072  -0.0061   0.00   31.9
2101 139269.000   4006966.5213  -4306990.2497  -2457935.3075   1  10   0.0098   0.0108   0.0084  -0.0084   0.0072  -0.0061   0.00   31.8
2101 139270.000   4006966.5223  -4306990.2507  -2457935.3087   1  10   0.0098   0.0108   0.0084  -0.0084   0.0072  -0.0061   0.00   31.7
2101 139271.000   4006966.5232  -4306990.2498  -2457935.3066   1  10   0.0098   0.0108   0.0084  -0.0084   0.0072  -0.0061   0.00   31.5
2101 139272.000   4006966.5225  -4306990.2512  -2457935.3073   1  10   0.0098   0.0108   0.0084  -0.0084   0.0072  -0.0061   0.00   31.4
2101 139273.000   4006966.5217  -4306990.2518  -2457935.3113   1  10   0.0098   0.0108   0.0084  -0.0084   0.0072  -0.0061   0.00   31.3
2101 139274.000   4006966.5203  -4306990.2534  -2457935.3104   1  10   0.0098   0.0108   0.0084  -0.0084   0.0072  -0.0061   0.00   31.1
2101 139275.000   4006966.5183  -4306990.2534  -2457935.3122   1  10   0.0098   0.0108   0.0084  -0.0084   0.0072  -0.0061   0.00   30.9
2101 139276.000   4006966.5217  -4306990.2529  -2457935.3099   1  10   0.0098   0.0108   0.0084  -0.0084   0.0072  -0.0061   0.00   30.8
2101 139277.000   4006966.5195  -4306990.2569  -2457935.3137   1  10   0.0098   0.0108   0.0084  -0.0084   0.0072  -0.0061   0.00   30.7
2101 139278.000   4006966.5177  -4306990.2499  -2457935.3064   1  10   0.0098   0.0108   0.0084  -0.0084   0.0072  -0.0061   0.00   30.6
2101 139279.000   4006966.5210  -4306990.2554  -2457935.3092   1  10   0.0098   0.0108   0.0084  -0.0084   0.0072  -0.0061   0.00   30.4
2101 139280.000   4006966.5215  -4306990.2541  -2457935.3092   1  10   0.0098   0.0108   0.0084  -0.0084   0.0072  -0.0061   0.00   30.3
2101 139281.000   4006966.5214  -4306990.2544  -2457935.3079   1  10   0.0098   0.0108   0.0084  -0.0084   0.0072  -0.0061   0.00   30.1
2101 139282.000   4006966.5197  -4306990.2538  -2457935.3095   1  10   0.0099   0.0108   0.0084  -0.0084   0.0072  -0.0061   0.00   30.0
2101 139283.000   4006966.5243  -4306990.2564  -2457935.3066   1  10   0.0099   0.0108   0.0084  -0.0084   0.0072  -0.0061   0.00   29.8
2101 139284.000   4006966.5207  -4306990.2552  -2457935.3091   1  10   0.0099   0.0108   0.0084  -0.0084   0.0072  -0.0061   0.00   29.6
2101 139285.000   4006966.5183  -4306990.2534  -2457935.3112   1  10   0.0099   0.0108   0.0084  -0.0084   0.0072  -0.0061   0.00   29.5
2101 139286.000   4006966.5186  -4306990.2518  -2457935.3073   1  10   0.0099   0.0108   0.0084  -0.0084   0.0072  -0.0061   0.00   29.4
2101 139287.000   4006966.5234  -4306990.2566  -2457935.3113   1  10   0.0099   0.0108   0.0084  -0.0084   0.0072  -0.0061   0.00   29.4
2101 139288.000   4006966.5239  -4306990.2570  -2457935.3107   1  10   0.0099   0.0108   0.0084  -0.0084   0.0072  -0.0061   0.00   29.2
2101 139289.000   4006966.5236  -4306990.2571  -2457935.3105   1  10   0.0099   0.0108   0.0084  -0.0085   0.0072  -0.0061   0.00   29.1
2101 139290.000   4006966.5206  -4306990.2501  -2457935.3096   1  10   0.0099   0.0108   0.0084  -0.0085   0.0072  -0.0061   0.00   29.0
2101 139291.000   4006966.5216  -4306990.2518  -2457935.3097   1  10   0.0099   0.0108   0.0084  -0.0085   0.0072  -0.0061   0.00   28.9
2101 139292.000   4006966.5201  -4306990.2478  -2457935.3086   1  10   0.0099   0.0108   0.0084  -0.0085   0.0072  -0.0061   0.00   28.7
2101 139293.000   4006966.5198  -4306990.2488  -2457935.3071   1  10   0.0099   0.0108   0.0084  -0.0085   0.0072  -0.0061   0.00   28.5
2101 139294.000   4006966.5191  -4306990.2439  -2457935.3036   1  10   0.0099   0.0108   0.0084  -0.0085   0.0072  -0.0061   0.00   28.4
2101 139295.000   4006966.5230  -4306990.2486  -2457935.3070   1  10   0.0099   0.0108   0.0084  -0.0085   0.0072  -0.0061   0.00   28.3
2101 139296.000   4006966.5232  -4306990.2505  -2457935.3045   1  10   0.0099   0.0108   0.0084  -0.0085   0.0071  -0.0061   0.00   28.2
2101 139297.000   4006966.5218  -4306990.2444  -2457935.3058   1  10   0.0099   0.0108   0.0084  -0.0085   0.0071  -0.0061   0.00   28.1
2101 139298.000   4006966.5220  -4306990.2482  -2457935.3064   1  10   0.0099   0.0108   0.0084  -0.0085   0.0071  -0.0061   0.00   28.0
2101 139299.000   4006966.5208  -4306990.2441  -2457935.3046   1  10   0.0099   0.0108   0.0084  -0.0085   0.0071  -0.0061   0.00   27.8
2101 139300.000   4006966.5179  -4306990.2416  -2457935.3046   1  10   0.0099   0.0108   0.0084  -0.0085   0.0071  -0.0061   0.00   27.7
2101 139301.000   4006966.5197  -4306990.2432  -2457935.3054   1  10   0.0099   0.0108   0.0084  -0.0085   0.0071  -0.0061   0.00   27.5
2101 139302.000   4006966.5170  -4306990.2408  -2457935.3039   1  10   0.0099   0.0108   0.0084  -0.0085   0.0071  -0.0061   0.00   27.4
2101 139303.000   4006966.5189  -4306990.2418  -2457935.3038   1  10   0.0099   0.0108   0.0084  -0.0085   0.0071  -0.0061   0.00   27.2
2101 139304.000   4006966.5222  -4306990.2456  -2457935.3056   1  10   0.0099   0.0108   0.0084  -0.0085   0.0071  -0.0061   0.00   27.0
2101 139305.000   4006966.5223  -4306990.2478  -2457935.3063   1  10   0.0099   0.0108   0.0084  -0.0085   0.0071  -0.0061   0.00   26.8
2101 139306.000   4006966.5224  -4306990.2474  -2457935.3063   1  10   0.0099   0.0108   0.0084  -0.0085   0.0071  -0.0061   0.00   26.5
2101 139307.000   4006966.5243  -4306990.2475  -2457935.3096   1  10   0.0099   0.0108   0.0084  -0.0085   0.0071  -0.0061   0.00   26.3
2101 139308.000   4006966.5233  -4306990.2462  -2457935.3095   1  10   0.0099   0.0108   0.0084  -0.0085   0.0071  -0.0061   0.00   26.1
2101 139309.000   4006966.5245  -4306990.2498  -2457935.3100   1  10   0.0099   0.0108   0.0084  -0.0085   0.0071  -0.0061   0.00   25.9
2101 139310.000   4006966.5240  -4306990.2475  -2457935.3083   1  10   0.0099   0.0108   0.0084  -0.0085   0.0071  -0.0061   0.00   25.7
2101 139311.000   4006966.5283  -4306990.2592  -2457935.3113   1  10   0.0099   0.0108   0.0084  -0.0085   0.0071  -0.0061   0.00   25.4
2101 139312.000   4006966.5243  -4306990.2548  -2457935.3103   1  10   0.0099   0.0108   0.0084  -0.0085   0.0071  -0.0061   0.00   25.1
2101 139313.000   4006966.5264  -4306990.2544  -2457935.3083   1  10   0.0099   0.0108   0.0084  -0.0085   0.0071  -0.0061   0.00   24.8
2101 139314.000   4006966.5200  -4306990.2438  -2457935.3060   1  10   0.0099   0.0108   0.0084  -0.0085   0.0071  -0.0061   0.00   24.4
2101 139315.000   4006966.5238  -4306990.2556  -2457935.3074   1  10   0.0099   0.0108   0.0084  -0.0085   0.0071  -0.0061   0.00   24.2
2101 139316.000   4006966.5255  -4306990.2570  -2457935.3115   1  10   0.0099   0.0108   0.0084  -0.0085   0.0071  -0.0061   0.00   23.8
2101 139317.000   4006966.5201  -4306990.2495  -2457935.3083   1  11   0.0093   0.0106   0.0083  -0.0081   0.0070  -0.0058   0.00   23.0
2101 139318.000   4006966.5186  -4306990.2422  -2457935.3043   1  11   0.0093   0.0106   0.0083  -0.0081   0.0070  -0.0058   0.00   22.7
2101 139319.000   4006966.5214  -4306990.2496  -2457935.3057   1  11   0.0093   0.0106   0.0083  -0.0081   0.0070  -0.0058   0.00   22.3
2101 139320.000   4006966.5211  -4306990.2432  -2457935.3025   1  11   0.0093   0.0106   0.0083  -0.0081   0.0070  -0.0058   0.00   22.0
2101 139321.000   4006966.5239  -4306990.2476  -2457935.3041   1  11   0.0093   0.0106   0.0083  -0.0081   0.0070  -0.0058   0.00   21.7
2101 139322.000   4006966.5229  -4306990.2441  -2457935.3034   1  11   0.0093   0.0106   0.0083  -0.0081   0.0070  -0.0058   0.00   21.4
2101 139323.000   4006966.5203  -4306990.2434  -2457935.3048   1  11   0.0093   0.0106   0.0083  -0.0081   0.0070  -0.0058   0.00   21.2
2101 139324.000   4006966.5182  -4306990.2416  -2457935.3012   1  11   0.0093   0.0106   0.0083  -0.0081   0.0070  -0.0058   0.00   20.9
2101 139325.000   4006966.5226  -4306990.2433  -2457935.3045   1  11   0.0093   0.0106   0.0083  -0.0081   0.0070  -0.0058   0.00   20.7
2101 139326.000   4006966.5205  -4306990.2448  -2457935.3042   1  11   0.0094   0.0106   0.0083  -0.0081   0.0070  -0.0058   0.00   20.5
2101 139327.000   4006966.5181  -4306990.2392  -2457935.3013   1  11   0.0094   0.0106   0.0083  -0.0081   0.0070  -0.0058   0.00   20.3
2101 139328.000   4006966.5242  -4306990.2477  -2457935.3055   1  11   0.0094   0.0106   0.0083  -0.0081   0.0070  -0.0058   0.00   20.0
2101 139329.000   4006966.5187  -4306990.2451  -2457935.3065   1  11   0.0094   0.0106   0.0083  -0.0081   0.0070  -0.0058   0.00   19.8
2101 139330.000   4006966.5193  -4306990.2433  -2457935.3033   1  11   0.0094   0.0106   0.0083  -0.0081   0.0070  -0.0058   0.00   19.5
2101 139331.000   4006966.5191  -4306990.2450  -2457935.3047   1  11   0.0094   0.0106   0.0083  -0.0081   0.0070  -0.0058   0.00   19.3
2101 139332.000   4006966.5210  -4306990.2490  -2457935.3083   1  11   0.0094   0.0106   0.0083  -0.0081   0.0070  -0.0058   0.00   19.0
2101 139333.000   4006966.5175  -4306990.2436  -2457935.3055   1  11   0.0094   0.0106   0.0083  -0.0081   0.0070  -0.0058   0.00   18.7
2101 139334.000   4006966.5205  -4306990.2439  -2457935.3020   1  12   0.0093   0.0105   0.0077  -0.0081   0.0066  -0.0060   0.00   18.3
2101 139335.000   4006966.5156  -4306990.2412  -2457935.3019   1  12   0.0093   0.0105   0.0077  -0.0081   0.0066  -0.0060   0.00   17.9
2101 139336.000   4006966.5176  -4306990.2455  -2457935.3018   1  12   0.0093   0.0105   0.0077  -0.0081   0.0066  -0.0060   0.00   17.5
2101 139337.000   4006966.5212  -4306990.2482  -2457935.3012   1  12   0.0093   0.0105   0.0078  -0.0081   0.0066  -0.0060   0.00   17.1
2101 139338.000   4006966.5225  -4306990.2508  -2457935.3023   1  12   0.0093   0.0105   0.0078  -0.0081   0.0067  -0.0060   0.00   16.8
2101 139339.000   4006966.5198  -4306990.2447  -2457935.3014   1  12   0.0093   0.0105   0.0080  -0.0081   0.0067  -0.0059   0.00   16.4
2101 139340.000   4006966.5221  -4306990.2435  -2457935.2994   1  12   0.0094   0.0106   0.0083  -0.0081   0.0070  -0.0058   0.00   16.0
2101 139341.000   4006966.5243  -4306990.2501  -2457935.3024   1  12   0.0093   0.0104   0.0076  -0.0082   0.0065  -0.0060   0.00   15.6
2101 139342.000   4006966.5237  -4306990.2498  -2457935.3021   1  12   0.0093   0.0104   0.0076  -0.0082   0.0065  -0.0060   0.00   15.3
2101 139343.000   4006966.5240  -4306990.2539  -2457935.3032   1  12   0.0093   0.0104   0.0076  -0.0082   0.0065  -0.0060   0.00   15.0
2101 139344.000   4006966.5230  -4306990.2523  -2457935.3013   1  12   0.0093   0.0104   0.0076  -0.0082   0.0065  -0.0060   0.00   14.7
2101 139345.000   4006966.5219  -4306990.2477  -2457935.3007   1  12   0.0093   0.0104   0.0076  -0.0082   0.0065  -0.0060   0.00   14.4
2101 139346.000   4006966.5246  -4306990.2523  -2457935.3018   1  12   0.0093   0.0104   0.0076  -0.0082   0.0065  -0.0060   0.00   14.0
2101 139347.000   4006966.5249  -4306990.2504  -2457935.3011   1  12   0.0093   0.0104   0.0076  -0.0082   0.0065  -0.0060   0.00   13.7
2101 139348.000   4006966.5226  -4306990.2523  -2457935.3015   1  12   0.0093   0.0104   0.0076  -0.0082   0.0065  -0.0060   0.00   13.4
2101 139349.000   4006966.5283  -4306990.2565  -2457935.3028   1  12   0.0093   0.0104   0.0076  -0.0082   0.0065  -0.0060   0.00   13.1
2101 139350.000   4006966.5243  -4306990.2532  -2457935.3039   1  12   0.0093   0.0104   0.0076  -0.0082   0.0065  -0.0060   0.00   12.8
2101 139351.000   4006966.5255  -4306990.2535  -2457935.3023   1  12   0.0093   0.0104   0.0076  -0.0082   0.0065  -0.0060   0.00   12.4
2101 139352.000   4006966.5260  -4306990.2542  -2457935.3032   1  12   0.0093   0.0104   0.0076  -0.0082   0.0065  -0.0060   0.00   12.1
2101 139353.000   4006966.5226  -4306990.2507  -2457935.3007   1  12   0.0093   0.0104   0.0076  -0.0082   0.0065  -0.0060   0.00   11.8
2101 139354.000   4006966.5242  -4306990.2486  -2457935.3004   1  12   0.0093   0.0104   0.0076  -0.0082   0.0065  -0.0060   0.00   11.4
2101 139355.000   4006966.5256  -4306990.2500  -2457935.3019   1  12   0.0093   0.0104   0.0076  -0.0082   0.0065  -0.0060   0.00   11.1
2101 139356.000   4006966.5238  -4306990.2508  -2457935.3033   1  12   0.0093   0.0104   0.0076  -0.0082   0.0065  -0.0060   0.00   10.8
2101 139357.000   4006966.5220  -4306990.2484  -2457935.3005   1  12   0.0094   0.0104   0.0076  -0.0082   0.0065  -0.0060   0.00   10.4
2101 139358.000   4006966.5198  -4306990.2467  -2457935.3014   1  12   0.0094   0.0104   0.0076  -0.0082   0.0065  -0.0060   0.00   10.1
2101 139359.000   4006966.5233  -4306990.2532  -2457935.3004   1  12   0.0094   0.0104   0.0076  -0.0082   0.0065  -0.0060   0.00    9.7
2101 139360.000   4006966.5209  -4306990.2466  -2457935.2994   1  12   0.0094   0.0104   0.0076  -0.0082   0.0065  -0.0060   0.00    9.4
2101 139361.000   4006966.5191  -4306990.2498  -2457935.3008   1  12   0.0094   0.0104   0.0076  -0.0082   0.0065  -0.0060   0.00    9.0
2101 139362.000   4006966.5191  -4306990.2466  -2457935.3004   1  12   0.0094   0.0104   0.0076  -0.0082   0.0065  -0.0060   0.00    8.6
2101 139363.000   4006966.5217  -4306990.2537  -2457935.3049   1  12   0.0094   0.0104   0.0076  -0.0082   0.0065  -0.0060   0.00    8.3
2101 139364.000   4006966.5210  -4306990.2468  -2457935.3027   1  12   0.0094   0.0104   0.0076  -0.0082   0.0065  -0.0060   0.00    7.9
2101 139365.000   4006966.5227  -4306990.2500  -2457935.3058   1  12   0.0094   0.0104   0.0076  -0.0082   0.0065  -0.0060   0.00    7.6
2101 139366.000   4006966.5212  -4306990.2505  -2457935.3028   1  12   0.0094   0.0104   0.0076  -0.0082   0.0065  -0.0060   0.00    7.2
2101 139367.000   4006966.5226  -4306990.2500  -2457935.3027   1  12   0.0094   0.0104   0.0076  -0.0082   0.0065  -0.0060   0.00    6.8
2101 139368.000   4006966.5264  -4306990.2531  -2457935.3041   1  12   0.0094   0.0104   0.0076  -0.0082   0.0065  -0.0060   0.00    6.4
2101 139369.000   4006966.5247  -4306990.2541  -2457935.3038   1  12   0.0094   0.0104   0.0076  -0.0082   0.0065  -0.0060   0.00    6.1
2101 139370.000   4006966.5250  -4306990.2542  -2457935.3020   1  12   0.0094   0.0104   0.0076  -0.0082   0.0065  -0.0060   0.00    5.7
2101 139371.000   4006966.5244  -4306990.2543  -2457935.3027   1  12   0.0094   0.0104   0.0076  -0.0082   0.0065  -0.0060   0.00    5.3
2101 139372.000   4006966.5241  -4306990.2548  -2457935.3002   1  12   0.0094   0.0104   0.0076  -0.0082   0.0065  -0.0060   0.00    5.0
2101 139373.000   4006966.5268  -4306990.2589  -2457935.3036   1  12   0.0094   0.0104   0.0076  -0.0082   0.0065  -0.0060   0.00    4.6
2101 139374.000   4006966.5268  -4306990.2565  -2457935.3022   1  12   0.0094   0.0104   0.0076  -0.0082   0.0065  -0.0060   0.00    4.3
2101 139375.000   4006966.5276  -4306990.2619  -2457935.3034   1  12   0.0094   0.0104   0.0076  -0.0082   0.0065  -0.0060   0.00    4.0
2101 139376.000   4006966.5262  -4306990.2642  -2457935.3030   1  12   0.0094   0.0104   0.0076  -0.0082   0.0065  -0.0060   0.00    3.6
2101 139377.000   4006966.5216  -4306990.2531  -2457935.3035   1  12   0.0095   0.0109   0.0076  -0.0084   0.0066  -0.0061   0.00   41.3
2101 139378.000   4006966.5241  -4306990.2510  -2457935.3035   1  12   0.0095   0.0110   0.0076  -0.0085   0.0066  -0.0061   0.00   41.0
2101 139379.000   4006966.5236  -4306990.2516  -2457935.3036   1  12   0.0095   0.0111   0.0076  -0.0085   0.0066  -0.0061   0.00   40.7
2101 139380.000   4006966.5237  -4306990.2516  -2457935.3027   1  12   0.0095   0.0112   0.0076  -0.0086   0.0067  -0.0061   0.00   40.4
2101 139381.000   4006966.5230  -4306990.2540  -2457935.3048   1  12   0.0096   0.0114   0.0076  -0.0087   0.0067  -0.0061   0.00   40.2
2101 139382.000   4006966.5198  -4306990.2502  -2457935.3036   1  12   0.0096   0.0117   0.0076  -0.0089   0.0068  -0.0061   0.00   39.9
2101 139383.000   4006966.5238  -4306990.2520  -2457935.3042   1  12   0.0097   0.0123   0.0076  -0.0092   0.0069  -0.0062   0.00   39.6
2101 139384.000   4006966.5215  -4306990.2501  -2457935.3031   1  12   0.0101   0.0139   0.0077  -0.0101   0.0073  -0.0064   0.00   39.3
2101 139385.000   4006966.5191  -4306990.2493  -2457935.3064   1  11   0.0101   0.0139   0.0077  -0.0101   0.0073  -0.0064   0.00   39.1
2101 139386.000   4006966.5192  -4306990.2455  -2457935.3035   1  11   0.0101   0.0139   0.0077  -0.0101   0.0073  -0.0064   0.00   38.8
2101 139387.000   4006966.5236  -4306990.2504  -2457935.3064   1  11   0.0101   0.0139   0.0077  -0.0101   0.0073  -0.0064   0.00   38.5
2101 139388.000   4006966.5224  -4306990.2554  -2457935.3070   1  12   0.0094   0.0104   0.0076  -0.0082   0.0065  -0.0060   0.00    4.5
2101 139389.000   4006966.5251  -4306990.2546  -2457935.3047   1  12   0.0094   0.0104   0.0076  -0.0082   0.0065  -0.0060   0.00    4.2
2101 139390.000   4006966.5250  -4306990.2565  -2457935.3062   1  12   0.0094   0.0104   0.0076  -0.0082   0.0065  -0.0060   0.00    3.9
2101 139391.000   4006966.5265  -4306990.2558  -2457935.3062   1  12   0.0095   0.0109   0.0076  -0.0085   0.0066  -0.0061   0.00   37.6
2101 139392.000   4006966.5203  -4306990.2480  -2457935.3061   1  12   0.0095   0.0110   0.0076  -0.0085   0.0066  -0.0061   0.00   37.3
2101 139393.000   4006966.5250  -4306990.2525  -2457935.3076   1  12   0.0095   0.0111   0.0076  -0.0085   0.0066  -0.0061   0.00   37.1
2101 139394.000   4006966.5270  -4306990.2608  -2457935.3120   1  12   0.0095   0.0112   0.0076  -0.0086   0.0067  -0.0061   0.00   36.9
2101 139395.000   4006966.5258  -4306990.2571  -2457935.3086   1  12   0.0096   0.0114   0.0076  -0.0087   0.0067  -0.0061   0.00   36.7
2101 139396.000   4006966.5246  -4306990.2561  -2457935.3074   1  12   0.0096   0.0117   0.0076  -0.0089   0.0068  -0.0061   0.00   36.4
2101 139397.000   4006966.5241  -4306990.2566  -2457935.3084   1  12   0.0097   0.0123   0.0076  -0.0092   0.0069  -0.0062   0.00   36.2
2101 139398.000   4006966.5231  -4306990.2558  -2457935.3088   1  12   0.0101   0.0139   0.0077  -0.0101   0.0073  -0.0064   0.00   35.9
2101 139399.000   4006966.5210  -4306990.2560  -2457935.3078   1  11   0.0101   0.0139   0.0077  -0.0101   0.0073  -0.0064   0.00   35.7
2101 139400.000   4006966.5269  -4306990.2675  -2457935.3076   1  12   0.0094   0.0104   0.0076  -0.0082   0.0065  -0.0060   0.00   14.0
2101 139401.000   4006966.5258  -4306990.2637  -2457935.3072   1  12   0.0094   0.0104   0.0076  -0.0082   0.0065  -0.0060   0.00   13.8
2101 139402.000   4006966.5257  -4306990.2667  -2457935.3062   1  12   0.0094   0.0104   0.0076  -0.0082   0.0065  -0.0060   0.00   13.5
2101 139403.000   4006966.5223  -4306990.2632  -2457935.3074   1  12   0.0094   0.0104   0.0076  -0.0082   0.0065  -0.0060   0.00   13.3
2101 139404.000   4006966.5228  -4306990.2644  -2457935.3066   1  12   0.0094   0.0104   0.0076  -0.0082   0.0065  -0.0060   0.00   13.0
2101 139405.000   4006966.5261  -4306990.2685  -2457935.3063   1  12   0.0094   0.0104   0.0076  -0.0082   0.0065  -0.0060   0.00   12.7
2101 139406.000   4006966.5253  -4306990.2670  -2457935.3085   1  12   0.0094   0.0104   0.0076  -0.0082   0.0065  -0.0060   0.00   12.5
2101 139407.000   4006966.5184  -4306990.2596  -2457935.3063   1  12   0.0094   0.0104   0.0076  -0.0082   0.0065  -0.0060   0.00   12.1
2101 139408.000   4006966.5241  -4306990.2667  -2457935.3097   1  12   0.0094   0.0104   0.0076  -0.0082   0.0065  -0.0060   0.00   11.8
2101 139409.000   4006966.5227  -4306990.2655  -2457935.3072   1  12   0.0094   0.0104   0.0076  -0.0082   0.0065  -0.0060   0.00   11.5
2101 139410.000   4006966.5236  -4306990.2644  -2457935.3093   1  12   0.0094   0.0104   0.0076  -0.0082   0.0065  -0.0060   0.00   11.2
2101 139411.000   4006966.5213  -4306990.2656  -2457935.3068   1  12   0.0094   0.0104   0.0076  -0.0082   0.0065  -0.0060   0.00   10.9
2101 139412.000   4006966.5199  -4306990.2601  -2457935.3086   1  12   0.0094   0.0104   0.0076  -0.0082   0.0065  -0.0060   0.00   10.6
2101 139413.000   4006966.5204  -4306990.2597  -2457935.3068   1  12   0.0094   0.0104   0.0075  -0.0082   0.0065  -0.0060   0.00   10.2
2101 139414.000   4006966.5217  -4306990.2647  -2457935.3047   1  12   0.0094   0.0104   0.0075  -0.0082   0.0065  -0.0060   0.00    9.8
2101 139415.000   4006966.5211  -4306990.2605  -2457935.3062   1  12   0.0094   0.0104   0.0075  -0.0082   0.0065  -0.0060   0.00    9.5
2101 139416.000   4006966.5200  -4306990.2613  -2457935.3073   1  12   0.0094   0.0104   0.0075  -0.0082   0.0065  -0.0060   0.00    9.2
2101 139417.000   4006966.5197  -4306990.2580  -2457935.3065   1  12   0.0094   0.0104   0.0075  -0.0082   0.0065  -0.0060   0.00    8.9
2101 139418.000   4006966.5205  -4306990.2584  -2457935.3059   1  12   0.0094   0.0104   0.0075  -0.0082   0.0065  -0.0060   0.00    8.6
2101 139419.000   4006966.5215  -4306990.2574  -2457935.3051   1  12   0.0094   0.0104   0.0075  -0.0082   0.0065  -0.0060   0.00    8.2
2101 139420.000   4006966.5230  -4306990.2575  -2457935.3047   1  12   0.0094   0.0104   0.0075  -0.0082   0.0065  -0.0060   0.00    7.9
2101 139421.000   4006966.5247  -4306990.2582  -2457935.3055   1  12   0.0094   0.0104   0.0075  -0.0082   0.0065  -0.0060   0.00    7.5
2101 139422.000   4006966.5237  -4306990.2580  -2457935.3036   1  12   0.0094   0.0104   0.0075  -0.0082   0.0065  -0.0060   0.00    7.1
2101 139423.000   4006966.5258  -4306990.2615  -2457935.3063   1  12   0.0094   0.0104   0.0075  -0.0082   0.0065  -0.0060   0.00    6.8
2101 139424.000   4006966.5299  -4306990.2615  -2457935.3069   1  12   0.0094   0.0104   0.0075  -0.0082   0.0065  -0.0060   0.00    6.4
2101 139425.000   4006966.5242  -4306990.2591  -2457935.3076   1  12   0.0094   0.0104   0.0075  -0.0082   0.0065  -0.0060   0.00    6.1
2101 139426.000   4006966.5254  -4306990.2598  -2457935.3106   1  12   0.0094   0.0104   0.0075  -0.0082   0.0065  -0.0060   0.00    5.8
2101 139427.000   4006966.5268  -4306990.2600  -2457935.3072   1  12   0.0094   0.0104   0.0075  -0.0082   0.0065  -0.0060   0.00    5.4
2101 139428.000   4006966.5224  -4306990.2542  -2457935.3043   1  12   0.0094   0.0104   0.0075  -0.0082   0.0065  -0.0060   0.00    5.1
2101 139429.000   4006966.5255  -4306990.2618  -2457935.3070   1  12   0.0094   0.0104   0.0075  -0.0082   0.0065  -0.0060   0.00    4.7
2101 139430.000   4006966.5218  -4306990.2574  -2457935.3082   1  12   0.0094   0.0104   0.0075  -0.0082   0.0065  -0.0060   0.00    4.4
2101 139431.000   4006966.5252  -4306990.2621  -2457935.3089   1  12   0.0094   0.0104   0.0075  -0.0082   0.0065  -0.0060   0.00    4.0
2101 139432.000   4006966.5279  -4306990.2633  -2457935.3086   1  12   0.0094   0.0104   0.0075  -0.0082   0.0065  -0.0060   0.00    3.6
2101 139433.000   4006966.5172  -4306990.2523  -2457935.3082   1  12   0.0095   0.0109   0.0075  -0.0085   0.0066  -0.0061   0.00   25.5
2101 139434.000   4006966.5200  -4306990.2493  -2457935.3084   1  12   0.0095   0.0110   0.0075  -0.0085   0.0066  -0.0061   0.00   25.2
2101 139435.000   4006966.5178  -4306990.2529  -2457935.3067   1  12   0.0095   0.0111   0.0076  -0.0086   0.0066  -0.0061   0.00   25.0
2101 139436.000   4006966.5210  -4306990.2547  -2457935.3069   1  12   0.0096   0.0112   0.0076  -0.0086   0.0066  -0.0061   0.00   24.7
2101 139437.000   4006966.5193  -4306990.2537  -2457935.3062   1  12   0.0096   0.0114   0.0076  -0.0087   0.0067  -0.0061   0.00   24.4
2101 139438.000   4006966.5216  -4306990.2566  -2457935.3068   1  12   0.0097   0.0117   0.0076  -0.0089   0.0068  -0.0061   0.00   24.1
2101 139439.000   4006966.5182  -4306990.2516  -2457935.3037   1  12   0.0098   0.0123   0.0076  -0.0092   0.0069  -0.0062   0.00   23.8
2101 139440.000   4006966.5196  -4306990.2552  -2457935.3063   1  12   0.0101   0.0139   0.0076  -0.0101   0.0073  -0.0064   0.00   23.5
2101 139441.000   4006966.5212  -4306990.2563  -2457935.3042   1  11   0.0101   0.0139   0.0076  -0.0101   0.0073  -0.0064   0.00   23.1
2101 139442.000   4006966.5197  -4306990.2531  -2457935.3036   1  11   0.0101   0.0139   0.0076  -0.0101   0.0073  -0.0064   0.00   22.8
2101 139443.000   4006966.5228  -4306990.2577  -2457935.3068   1  11   0.0101   0.0139   0.0076  -0.0101   0.0073  -0.0064   0.00   22.4
2101 139444.000   4006966.5198  -4306990.2532  -2457935.3038   1  11   0.0101   0.0139   0.0076  -0.0101   0.0073  -0.0064   0.00   22.1
2101 139445.000   4006966.5183  -4306990.2516  -2457935.3038   1  11   0.0101   0.0139   0.0076  -0.0101   0.0073  -0.0064   0.00   21.7
2101 139446.000   4006966.5212  -4306990.2556  -2457935.3045   1  11   0.0101   0.0139   0.0076  -0.0101   0.0073  -0.0064   0.00   21.4
2101 139447.000   4006966.5211  -4306990.2552  -2457935.3032   1  11   0.0101   0.0139   0.0076  -0.0101   0.0073  -0.0064   0.00   21.0
2101 139448.000   4006966.5193  -4306990.2554  -2457935.3024   1  11   0.0101   0.0139   0.0076  -0.0101   0.0073  -0.0064   0.00   20.7
2101 139449.000   4006966.5215  -4306990.2578  -2457935.3050   1  11   0.0101   0.0139   0.0076  -0.0101   0.0073  -0.0064   0.00   20.3
2101 139450.000   4006966.5201  -4306990.2542  -2457935.3029   1  11   0.0101   0.0139   0.0076  -0.0101   0.0073  -0.0064   0.00   20.0
2101 139451.000   4006966.5236  -4306990.2572  -2457935.3036   1  11   0.0101   0.0139   0.0076  -0.0101   0.0073  -0.0064   0.00   19.6
2101 139452.000   4006966.5296  -4306990.2614  -2457935.3039   1  11   0.0101   0.0139   0.0076  -0.0101   0.0073  -0.0064   0.00   19.3
2101 139453.000   4006966.5267  -4306990.2577  -2457935.3035   1  11   0.0101   0.0139   0.0076  -0.0101   0.0073  -0.0064   0.00   18.9
2101 139454.000   4006966.5279  -4306990.2597  -2457935.3023   1  11   0.0101   0.0139   0.0076  -0.0101   0.0073  -0.0064   0.00   18.6
2101 139455.000   4006966.5287  -4306990.2626  -2457935.3056   1  12   0.0097   0.0117   0.0076  -0.0089   0.0068  -0.0061   0.00   18.2
2101 139456.000   4006966.5306  -4306990.2620  -2457935.3078   1  12   0.0098   0.0123   0.0076  -0.0092   0.0069  -0.0062   0.00   17.9
2101 139457.000   4006966.5287  -4306990.2602  -2457935.3055   1  12   0.0101   0.0139   0.0076  -0.0101   0.0073  -0.0064   0.00   17.6
2101 139458.000   4006966.5316  -4306990.2629  -2457935.3089   1  11   0.0101   0.0139   0.0076  -0.0101   0.0073  -0.0064   0.00   17.3
2101 139459.000   4006966.5290  -4306990.2629  -2457935.3087   1  11   0.0101   0.0139   0.0076  -0.0101   0.0073  -0.0064   0.00   17.0
2101 139460.000   4006966.5284  -4306990.2572  -2457935.3076   1  11   0.0101   0.0139   0.0076  -0.0101   0.0073  -0.0064   0.00   16.7
2101 139461.000   4006966.5293  -4306990.2600  -2457935.3074   1  11   0.0101   0.0139   0.0076  -0.0101   0.0073  -0.0064   0.00   16.4
2101 139462.000   4006966.5273  -4306990.2560  -2457935.3073   1  11   0.0101   0.0139   0.0076  -0.0101   0.0073  -0.0064   0.00   16.1
2101 139463.000   4006966.5286  -4306990.2613  -2457935.3102   1  11   0.0101   0.0139   0.0076  -0.0101   0.0073  -0.0064   0.00   15.8
2101 139464.000   4006966.5277  -4306990.2589  -2457935.3082   1  11   0.0101   0.0139   0.0076  -0.0101   0.0073  -0.0064   0.00   15.4
2101 139465.000   4006966.5280  -4306990.2607  -2457935.3081   1  11   0.0101   0.0139   0.0076  -0.0101   0.0073  -0.0064   0.00   15.1
2101 139466.000   4006966.5267  -4306990.2570  -2457935.3055   1  11   0.0101   0.0139   0.0076  -0.0101   0.0073  -0.0064   0.00   14.8
2101 139467.000   4006966.5282  -4306990.2586  -2457935.3055   1  11   0.0101   0.0139   0.0076  -0.0101   0.0073  -0.0064   0.00   14.5
2101 139468.000   4006966.5278  -4306990.2602  -2457935.3080   1  11   0.0101   0.0138   0.0076  -0.0101   0.0073  -0.0064   0.00   14.2
2101 139469.000   4006966.5307  -4306990.2627  -2457935.3092   1  11   0.0102   0.0138   0.0076  -0.0101   0.0073  -0.0064   0.00   13.9
2101 139470.000   4006966.5252  -4306990.2580  -2457935.3061   1  11   0.0102   0.0138   0.0076  -0.0101   0.0073  -0.0064   0.00   13.6
2101 139471.000   4006966.5264  -4306990.2598  -2457935.3094   1  11   0.0102   0.0138   0.0076  -0.0101   0.0073  -0.0064   0.00   13.3
2101 139472.000   4006966.5206  -4306990.2537  -2457935.3053   1  11   0.0102   0.0138   0.0076  -0.0101   0.0073  -0.0064   0.00   12.9
2101 139473.000   4006966.5230  -4306990.2567  -2457935.3040   1  11   0.0102   0.0138   0.0076  -0.0101   0.0073  -0.0064   0.00   12.6
2101 139474.000   4006966.5220  -4306990.2558  -2457935.3045   1  11   0.0102   0.0138   0.0076  -0.0101   0.0073  -0.0064   0.00   12.3
2101 139475.000   4006966.5219  -4306990.2597  -2457935.3055   1  11   0.0102   0.0138   0.0076  -0.0101   0.0073  -0.0064   0.00   11.9
2101 139476.000   4006966.5213  -4306990.2560  -2457935.3037   1  11   0.0102   0.0138   0.0076  -0.0101   0.0073  -0.0064   0.00   11.5
2101 139477.000   4006966.5226  -4306990.2589  -2457935.3031   1  11   0.0102   0.0138   0.0076  -0.0101   0.0073  -0.0064   0.00   11.2
2101 139478.000   4006966.5215  -4306990.2546  -2457935.3000   1  11   0.0102   0.0138   0.0076  -0.0101   0.0073  -0.0064   0.00   10.8
2101 139479.000   4006966.5200  -4306990.2548  -2457935.3006   1  11   0.0102   0.0138   0.0076  -0.0101   0.0073  -0.0064   0.00   10.4
2101 139480.000   4006966.5204  -4306990.2554  -2457935.3011   1  11   0.0102   0.0138   0.0076  -0.0101   0.0073  -0.0064   0.00   10.0
2101 139481.000   4006966.5206  -4306990.2537  -2457935.2996   1  11   0.0102   0.0138   0.0076  -0.0101   0.0073  -0.0064   0.00    9.6
2101 139482.000   4006966.5256  -4306990.2570  -2457935.3017   1  11   0.0102   0.0138   0.0076  -0.0101   0.0073  -0.0064   0.00    9.2
2101 139483.000   4006966.5232  -4306990.2546  -2457935.3008   1  11   0.0102   0.0138   0.0076  -0.0101   0.0073  -0.0064   0.00    8.8
2101 139484.000   4006966.5235  -4306990.2586  -2457935.3042   1  11   0.0102   0.0138   0.0076  -0.0101   0.0073  -0.0064   0.00    8.3
2101 139485.000   4006966.5240  -4306990.2563  -2457935.3040   1  11   0.0102   0.0138   0.0076  -0.0101   0.0073  -0.0064   0.00    8.0
2101 139486.000   4006966.5234  -4306990.2547  -2457935.3028   1  11   0.0102   0.0138   0.0076  -0.0101   0.0073  -0.0064   0.00    7.6
2101 139487.000   4006966.5215  -4306990.2506  -2457935.3013   1  11   0.0102   0.0138   0.0076  -0.0101   0.0073  -0.0064   0.00    7.1
2101 139488.000   4006966.5228  -4306990.2525  -2457935.3020   1  11   0.0102   0.0138   0.0076  -0.0101   0.0073  -0.0064   0.00    6.7
2101 139489.000   4006966.5249  -4306990.2567  -2457935.3057   1  11   0.0102   0.0138   0.0076  -0.0101   0.0073  -0.0064   0.00    6.3
2101 139490.000   4006966.5279  -4306990.2575  -2457935.3055   1  11   0.0102   0.0138   0.0076  -0.0101   0.0073  -0.0064   0.00    5.8
2101 139491.000   4006966.5195  -4306990.2358  -2457935.3038   1  12   0.0095   0.0104   0.0075  -0.0083   0.0065  -0.0060   0.00    4.7
2101 139492.000   4006966.5163  -4306990.2355  -2457935.3006   1  12   0.0095   0.0104   0.0075  -0.0083   0.0065  -0.0060   0.00    4.4
2101 139493.000   4006966.5173  -4306990.2363  -2457935.3018   1  12   0.0095   0.0104   0.0075  -0.0083   0.0065  -0.0060   0.00    4.1
2101 139494.000   4006966.5178  -4306990.2382  -2457935.3025   1  12   0.0095   0.0104   0.0075  -0.0083   0.0065  -0.0060   0.00    3.7
2101 139495.000   4006966.5161  -4306990.2401  -2457935.3041   1  12   0.0095   0.0104   0.0075  -0.0083   0.0065  -0.0060   0.00    3.4
2101 139496.000   4006966.5163  -4306990.2372  -2457935.3025   1  12   0.0095   0.0105   0.0076  -0.0083   0.0066  -0.0060   0.00    5.7
2101 139497.000   4006966.5176  -4306990.2401  -2457935.3023   1  12   0.0095   0.0105   0.0077  -0.0082   0.0066  -0.0060   0.00    5.4
2101 139498.000   4006966.5148  -4306990.2358  -2457935.3018   1  12   0.0095   0.0105   0.0077  -0.0082   0.0066  -0.0060   0.00    5.2
2101 139499.000   4006966.5148  -4306990.2388  -2457935.3022   1  12   0.0095   0.0105   0.0079  -0.0082   0.0067  -0.0060   0.00    5.0
2101 139500.000   4006966.5202  -4306990.2420  -2457935.3045   1  12   0.0095   0.0106   0.0082  -0.0082   0.0069  -0.0059   0.00    4.7
2101 139501.000   4006966.5149  -4306990.2381  -2457935.3033   1  12   0.0095   0.0105   0.0079  -0.0082   0.0067  -0.0060   0.00    4.5
2101 139502.000   4006966.5137  -4306990.2337  -2457935.3021   1  12   0.0095   0.0106   0.0082  -0.0082   0.0069  -0.0059   0.00    4.2
2101 139503.000   4006966.5158  -4306990.2387  -2457935.3037   1  12   0.0095   0.0104   0.0075  -0.0083   0.0065  -0.0060   0.00    3.9
2101 139504.000   4006966.5142  -4306990.2349  -2457935.3040   1  12   0.0095   0.0104   0.0075  -0.0083   0.0065  -0.0060   0.00    3.6
2101 139505.000   4006966.5210  -4306990.2496  -2457935.3054   1  12   0.0096   0.0109   0.0075  -0.0085   0.0066  -0.0061   0.00  145.4
2101 139506.000   4006966.5212  -4306990.2515  -2457935.3055   1  12   0.0096   0.0110   0.0075  -0.0086   0.0066  -0.0061   0.00  145.5
2101 139507.000   4006966.5215  -4306990.2495  -2457935.3052   1  12   0.0096   0.0111   0.0075  -0.0086   0.0066  -0.0061   0.00  145.6
2101 139508.000   4006966.5197  -4306990.2475  -2457935.3059   1  12   0.0096   0.0112   0.0075  -0.0087   0.0066  -0.0061   0.00  146.1
2101 139509.000   4006966.5205  -4306990.2453  -2457935.3044   1  12   0.0097   0.0114   0.0075  -0.0088   0.0067  -0.0061   0.00  146.5
2101 139510.000   4006966.5178  -4306990.2458  -2457935.3040   1  12   0.0097   0.0117   0.0075  -0.0089   0.0067  -0.0062   0.00  146.7
2101 139511.000   4006966.5216  -4306990.2511  -2457935.3062   1  12   0.0098   0.0123   0.0075  -0.0092   0.0069  -0.0062   0.00  146.9
2101 139512.000   4006966.5211  -4306990.2494  -2457935.3070   1  12   0.0102   0.0138   0.0076  -0.0101   0.0073  -0.0064   0.00  147.2
2101 139513.000   4006966.5172  -4306990.2489  -2457935.3068   1  11   0.0102   0.0138   0.0076  -0.0101   0.0073  -0.0064   0.00  147.5
2101 139514.000   4006966.5196  -4306990.2538  -2457935.3076   1  11   0.0102   0.0138   0.0076  -0.0101   0.0073  -0.0064   0.00  147.7
2101 139515.000   4006966.5145  -4306990.2339  -2457935.3054   1  12   0.0095   0.0104   0.0075  -0.0083   0.0065  -0.0060   0.00   21.7
2101 139516.000   4006966.5091  -4306990.2271  -2457935.3033   1  12   0.0095   0.0104   0.0075  -0.0083   0.0065  -0.0060   0.00   21.7
2101 139517.000   4006966.5112  -4306990.2324  -2457935.3038   1  12   0.0095   0.0104   0.0075  -0.0083   0.0065  -0.0060   0.00   21.9
2101 139518.000   4006966.5071  -4306990.2208  -2457935.3030   1  12   0.0095   0.0104   0.0075  -0.0083   0.0065  -0.0060   0.00   22.0
2101 139519.000   4006966.5119  -4306990.2331  -2457935.3064   1  12   0.0095   0.0104   0.0075  -0.0083   0.0065  -0.0060   0.00   22.2
2101 139520.000   4006966.5124  -4306990.2257  -2457935.3073   1  12   0.0095   0.0104   0.0075  -0.0083   0.0065  -0.0060   0.00   22.3
2101 139521.000   4006966.5125  -4306990.2306  -2457935.3044   1  12   0.0095   0.0104   0.0075  -0.0083   0.0065  -0.0060   0.00   22.6
2101 139522.000   4006966.5125  -4306990.2277  -2457935.3049   1  12   0.0095   0.0104   0.0075  -0.0083   0.0065  -0.0060   0.00   22.7
2101 139523.000   4006966.5124  -4306990.2293  -2457935.3054   1  12   0.0095   0.0104   0.0075  -0.0083   0.0065  -0.0060   0.00   22.9
2101 139524.000   4006966.5118  -4306990.2279  -2457935.3075   1  12   0.0095   0.0104   0.0075  -0.0083   0.0065  -0.0060   0.00   23.1
2101 139525.000   4006966.5086  -4306990.2235  -2457935.3016   1  12   0.0095   0.0104   0.0075  -0.0083   0.0065  -0.0060   0.00   23.4
2101 139526.000   4006966.5126  -4306990.2307  -2457935.3047   1  12   0.0095   0.0104   0.0075  -0.0083   0.0065  -0.0060   0.00   23.6
2101 139527.000   4006966.5107  -4306990.2292  -2457935.3041   1  12   0.0095   0.0104   0.0075  -0.0083   0.0065  -0.0060   0.00   23.8
2101 139528.000   4006966.5087  -4306990.2264  -2457935.3022   1  12   0.0095   0.0104   0.0075  -0.0083   0.0065  -0.0060   0.00   24.0
2101 139529.000   4006966.5099  -4306990.2270  -2457935.3033   1  12   0.0095   0.0104   0.0075  -0.0083   0.0065  -0.0060   0.00   24.3
2101 139530.000   4006966.5105  -4306990.2274  -2457935.3048   1  12   0.0095   0.0104   0.0075  -0.0083   0.0065  -0.0060   0.00   24.5
2101 139531.000   4006966.5102  -4306990.2265  -2457935.3002   1  12   0.0095   0.0104   0.0075  -0.0083   0.0065  -0.0060   0.00   24.8
2101 139532.000   4006966.5095  -4306990.2296  -2457935.3031   1  12   0.0095   0.0104   0.0075  -0.0083   0.0065  -0.0060   0.00   25.0
2101 139533.000   4006966.5071  -4306990.2251  -2457935.2985   1  12   0.0095   0.0104   0.0075  -0.0083   0.0065  -0.0060   0.00   25.2
2101 139534.000   4006966.5092  -4306990.2288  -2457935.2982   1  12   0.0095   0.0104   0.0075  -0.0083   0.0065  -0.0060   0.00   25.5
2101 139535.000   4006966.5111  -4306990.2282  -2457935.2997   1  12   0.0095   0.0104   0.0075  -0.0083   0.0065  -0.0060   0.00   25.8
2101 139536.000   4006966.5116  -4306990.2299  -2457935.3005   1  12   0.0095   0.0104   0.0075  -0.0083   0.0065  -0.0060   0.00   26.0
2101 139537.000   4006966.5077  -4306990.2259  -2457935.2998   1  12   0.0095   0.0104   0.0075  -0.0083   0.0065  -0.0060   0.00   26.4
2101 139538.000   4006966.5089  -4306990.2274  -2457935.3005   1  12   0.0095   0.0104   0.0075  -0.0083   0.0065  -0.0060   0.00   26.6
2101 139539.000   4006966.5115  -4306990.2289  -2457935.3033   1  12   0.0095   0.0104   0.0075  -0.0083   0.0065  -0.0060   0.00   26.9
2101 139540.000   4006966.5082  -4306990.2237  -2457935.3009   1  12   0.0095   0.0104   0.0075  -0.0083   0.0065  -0.0060   0.00   27.2
2101 139541.000   4006966.5077  -4306990.2226  -2457935.3002   1  12   0.0095   0.0104   0.0075  -0.0083   0.0065  -0.0060   0.00   27.6
2101 139542.000   4006966.5071  -4306990.2216  -2457935.3007   1  12   0.0095   0.0104   0.0075  -0.0083   0.0065  -0.0060   0.00   27.9
2101 139543.000   4006966.5033  -4306990.2147  -2457935.2976   1  12   0.0095   0.0104   0.0075  -0.0083   0.0065  -0.0060   0.00   28.3
2101 139544.000   4006966.5041  -4306990.2157  -2457935.2977   1  12   0.0095   0.0104   0.0075  -0.0083   0.0065  -0.0060   0.00   28.7
2101 139545.000   4006966.5049  -4306990.2177  -2457935.2980   1  12   0.0095   0.0104   0.0075  -0.0083   0.0065  -0.0060   0.00   29.2
2101 139546.000   4006966.5071  -4306990.2209  -2457935.2992   1  12   0.0095   0.0104   0.0075  -0.0083   0.0065  -0.0060   0.00   29.5
2101 139547.000   4006966.5045  -4306990.2147  -2457935.2958   1  12   0.0095   0.0104   0.0075  -0.0083   0.0065  -0.0060   0.00   29.9
2101 139548.000   4006966.5047  -4306990.2157  -2457935.2970   1  12   0.0095   0.0104   0.0075  -0.0083   0.0065  -0.0060   0.00   30.2
2101 139549.000   4006966.5030  -4306990.2169  -2457935.2955   1  12   0.0095   0.0104   0.0075  -0.0083   0.0065  -0.0060   0.00   30.6
2101 139550.000   4006966.5085  -4306990.2208  -2457935.2981   1  12   0.0095   0.0104   0.0075  -0.0083   0.0065  -0.0060   0.00   30.8
2101 139551.000   4006966.5067  -4306990.2214  -2457935.3020   1  12   0.0095   0.0104   0.0075  -0.0083   0.0065  -0.0060   0.00   31.1
2101 139552.000   4006966.5081  -4306990.2235  -2457935.3016   1  12   0.0095   0.0104   0.0075  -0.0083   0.0065  -0.0060   0.00   31.4
2101 139553.000   4006966.5101  -4306990.2238  -2457935.3019   1  12   0.0095   0.0104   0.0075  -0.0083   0.0065  -0.0060   0.00   31.7
2101 139554.000   4006966.5082  -4306990.2226  -2457935.3003   1  12   0.0095   0.0104   0.0075  -0.0083   0.0065  -0.0060   0.00   32.0
2101 139555.000   4006966.5094  -4306990.2245  -2457935.3011   1  12   0.0095   0.0104   0.0075  -0.0083   0.0065  -0.0060   0.00   32.3
2101 139556.000   4006966.5089  -4306990.2245  -2457935.3024   1  12   0.0095   0.0104   0.0075  -0.0083   0.0064  -0.0060   0.00   32.6
2101 139557.000   4006966.5108  -4306990.2251  -2457935.3028   1  12   0.0095   0.0104   0.0075  -0.0083   0.0064  -0.0060   0.00   32.9
2101 139558.000   4006966.5135  -4306990.2283  -2457935.3051   1  12   0.0095   0.0104   0.0075  -0.0083   0.0064  -0.0060   0.00   33.2
2101 139559.000   4006966.5143  -4306990.2296  -2457935.3047   1  12   0.0095   0.0104   0.0075  -0.0083   0.0064  -0.0060   0.00   33.4
2101 139560.000   4006966.5122  -4306990.2291  -2457935.3024   1  12   0.0095   0.0104   0.0075  -0.0083   0.0064  -0.0060   0.00   33.5
2101 139561.000   4006966.5122  -4306990.2292  -2457935.3029   1  12   0.0095   0.0104   0.0075  -0.0083   0.0064  -0.0060   0.00   33.6
2101 139562.000   4006966.5128  -4306990.2298  -2457935.3043   1  12   0.0095   0.0104   0.0075  -0.0083   0.0064  -0.0060   0.00   33.6
2101 139563.000   4006966.5099  -4306990.2293  -2457935.3023   1  12   0.0095   0.0104   0.0075  -0.0083   0.0064  -0.0060   0.00   33.6
2101 139564.000   4006966.5150  -4306990.2319  -2457935.3044   1  12   0.0095   0.0104   0.0075  -0.0083   0.0064  -0.0060   0.00   33.5
2101 139565.000   4006966.5131  -4306990.2305  -2457935.3036   1  12   0.0095   0.0104   0.0075  -0.0083   0.0064  -0.0060   0.00   33.4
2101 139566.000   4006966.5168  -4306990.2339  -2457935.3039   1  12   0.0095   0.0104   0.0075  -0.0083   0.0064  -0.0060   0.00   33.3
2101 139567.000   4006966.5116  -4306990.2302  -2457935.3032   1  12   0.0095   0.0104   0.0075  -0.0083   0.0064  -0.0060   0.00   33.2
2101 139568.000   4006966.5083  -4306990.2295  -2457935.3001   1  12   0.0095   0.0104   0.0075  -0.0083   0.0064  -0.0060   0.00   32.5
2101 139569.000   4006966.5093  -4306990.2317  -2457935.3024   1  12   0.0095   0.0104   0.0075  -0.0083   0.0064  -0.0060   0.00   31.8
2101 139570.000   4006966.5086  -4306990.2291  -2457935.3019   1  12   0.0095   0.0104   0.0075  -0.0083   0.0064  -0.0060   0.00   31.0
2101 139571.000   4006966.5108  -4306990.2303  -2457935.3042   1  12   0.0095   0.0104   0.0075  -0.0083   0.0064  -0.0060   0.00   30.3
2101 139572.000   4006966.5073  -4306990.2297  -2457935.3020   1  12   0.0095   0.0104   0.0074  -0.0083   0.0064  -0.0060   0.00   29.5
2101 139573.000   4006966.5105  -4306990.2315  -2457935.3021   1  12   0.0095   0.0104   0.0074  -0.0083   0.0064  -0.0060   0.00   28.6
2101 139574.000   4006966.5126  -4306990.2351  -2457935.3040   1  12   0.0095   0.0104   0.0074  -0.0083   0.0064  -0.0060   0.00   27.7
2101 139575.000   4006966.5085  -4306990.2297  -2457935.3029   1  12   0.0095   0.0104   0.0074  -0.0083   0.0064  -0.0060   0.00   26.9
2101 139576.000   4006966.5050  -4306990.2288  -2457935.3007   1  12   0.0095   0.0104   0.0074  -0.0083   0.0064  -0.0060   0.00   26.0
2101 139577.000   4006966.5064  -4306990.2294  -2457935.3018   1  12   0.0095   0.0104   0.0074  -0.0083   0.0064  -0.0060   0.00   25.1
2101 139578.000   4006966.5060  -4306990.2304  -2457935.2999   1  12   0.0095   0.0104   0.0074  -0.0083   0.0064  -0.0060   0.00   24.1
2101 139579.000   4006966.5065  -4306990.2315  -2457935.2998   1  12   0.0095   0.0104   0.0074  -0.0083   0.0064  -0.0060   0.00   23.2
2101 139580.000   4006966.5073  -4306990.2317  -2457935.3017   1  12   0.0095   0.0104   0.0074  -0.0083   0.0064  -0.0060   0.00   22.3
2101 139581.000   4006966.5093  -4306990.2345  -2457935.3008   1  12   0.0095   0.0104   0.0074  -0.0083   0.0064  -0.0060   0.00   21.3
2101 139582.000   4006966.5106  -4306990.2351  -2457935.3014   1  12   0.0095   0.0104   0.0074  -0.0083   0.0064  -0.0060   0.00   20.3
2101 139583.000   4006966.5112  -4306990.2348  -2457935.3028   1  12   0.0095   0.0104   0.0074  -0.0083   0.0064  -0.0060   0.00   19.4
2101 139584.000   4006966.5152  -4306990.2374  -2457935.3026   1  12   0.0095   0.0104   0.0074  -0.0083   0.0064  -0.0060   0.00   18.5
2101 139585.000   4006966.5133  -4306990.2370  -2457935.3005   1  12   0.0095   0.0104   0.0074  -0.0083   0.0064  -0.0060   0.00   17.6
2101 139586.000   4006966.5151  -4306990.2397  -2457935.3019   1  12   0.0095   0.0104   0.0074  -0.0083   0.0064  -0.0060   0.00   16.8
2101 139587.000   4006966.5111  -4306990.2364  -2457935.3001   1  12   0.0095   0.0104   0.0074  -0.0083   0.0064  -0.0060   0.00   16.0
2101 139588.000   4006966.5134  -4306990.2417  -2457935.3003   1  12   0.0095   0.0104   0.0074  -0.0083   0.0064  -0.0060   0.00   15.2
2101 139589.000   4006966.5100  -4306990.2367  -2457935.3001   1  13   0.0090   0.0100   0.0074  -0.0078   0.0063  -0.0059   0.00   14.5
2101 139590.000   4006966.5086  -4306990.2353  -2457935.2991   1  13   0.0090   0.0100   0.0074  -0.0078   0.0063  -0.0059   0.00   13.7
2101 139591.000   4006966.5118  -4306990.2416  -2457935.3002   1  13   0.0090   0.0100   0.0074  -0.0078   0.0063  -0.0059   0.00   13.0
2101 139592.000   4006966.5105  -4306990.2415  -2457935.2998   1  13   0.0090   0.0100   0.0074  -0.0078   0.0063  -0.0059   0.00   12.4
2101 139593.000   4006966.5106  -4306990.2403  -2457935.3000   1  13   0.0090   0.0100   0.0074  -0.0078   0.0063  -0.0059   0.00   11.8
2101 139594.000   4006966.5144  -4306990.2441  -2457935.3018   1  13   0.0090   0.0100   0.0074  -0.0078   0.0063  -0.0059   0.00   11.2
2101 139595.000   4006966.5161  -4306990.2486  -2457935.2999   1  13   0.0090   0.0100   0.0074  -0.0078   0.0063  -0.0059   0.00   10.6
2101 139596.000   4006966.5158  -4306990.2494  -2457935.3011   1  13   0.0090   0.0100   0.0074  -0.0078   0.0063  -0.0059   0.00   10.2
2101 139597.000   4006966.5141  -4306990.2448  -2457935.2983   1  13   0.0090   0.0100   0.0074  -0.0078   0.0063  -0.0059   0.00    9.7
2101 139598.000   4006966.5165  -4306990.2491  -2457935.3010   1  13   0.0090   0.0100   0.0074  -0.0078   0.0063  -0.0059   0.00    9.3
2101 139599.000   4006966.5157  -4306990.2479  -2457935.3000   1  13   0.0090   0.0100   0.0074  -0.0078   0.0063  -0.0059   0.00    8.8
2101 139600.000   4006966.5163  -4306990.2534  -2457935.3007   1  13   0.0090   0.0100   0.0074  -0.0078   0.0063  -0.0059   0.00    8.4
2101 139601.000   4006966.5201  -4306990.2605  -2457935.3015   1  13   0.0090   0.0100   0.0074  -0.0078   0.0063  -0.0059   0.00    8.0
2101 139602.000   4006966.5186  -4306990.2590  -2457935.3003   1  13   0.0090   0.0100   0.0074  -0.0078   0.0063  -0.0059   0.00    7.8
2101 139603.000   4006966.5156  -4306990.2538  -2457935.2989   1  13   0.0090   0.0100   0.0074  -0.0078   0.0063  -0.0059   0.00    7.4
2101 139604.000   4006966.5170  -4306990.2570  -2457935.3013   1  13   0.0090   0.0100   0.0074  -0.0078   0.0063  -0.0059   0.00    7.1
2101 139605.000   4006966.5195  -4306990.2636  -2457935.3011   1  13   0.0090   0.0100   0.0074  -0.0078   0.0063  -0.0059   0.00    6.7
2101 139606.000   4006966.5191  -4306990.2635  -2457935.3016   1  13   0.0090   0.0100   0.0074  -0.0078   0.0063  -0.0059   0.00    6.4
2101 139607.000   4006966.5199  -4306990.2630  -2457935.3026   1  13   0.0090   0.0100   0.0074  -0.0078   0.0063  -0.0059   0.00    6.1
2101 139608.000   4006966.5189  -4306990.2672  -2457935.3024   1  13   0.0090   0.0100   0.0074  -0.0078   0.0063  -0.0059   0.00    5.8
2101 139609.000   4006966.5156  -4306990.2613  -2457935.3020   1  13   0.0090   0.0100   0.0074  -0.0078   0.0063  -0.0059   0.00    5.5
2101 139610.000   4006966.5187  -4306990.2663  -2457935.3020   1  13   0.0090   0.0100   0.0074  -0.0078   0.0063  -0.0059   0.00    5.2
2101 139611.000   4006966.5187  -4306990.2646  -2457935.3018   1  13   0.0090   0.0100   0.0074  -0.0078   0.0063  -0.0059   0.00    4.9
2101 139612.000   4006966.5205  -4306990.2678  -2457935.3029   1  13   0.0090   0.0100   0.0074  -0.0078   0.0063  -0.0059   0.00    4.6
2101 139613.000   4006966.5166  -4306990.2646  -2457935.3023   1  13   0.0090   0.0100   0.0074  -0.0078   0.0063  -0.0059   0.00    4.4
2101 139614.000   4006966.5213  -4306990.2682  -2457935.3030   1  13   0.0090   0.0100   0.0074  -0.0078   0.0063  -0.0059   0.00    4.1
2101 139615.000   4006966.5209  -4306990.2626  -2457935.3016   1  13   0.0090   0.0100   0.0074  -0.0078   0.0063  -0.0059   0.00    3.8
2101 139616.000   4006966.5198  -4306990.2657  -2457935.3013   1  13   0.0090   0.0100   0.0074  -0.0078   0.0063  -0.0059   0.00    3.5
2101 139617.000   4006966.5164  -4306990.2459  -2457935.3011   1  13   0.0091   0.0103   0.0074  -0.0079   0.0064  -0.0059   0.00   11.7
2101 139618.000   4006966.5159  -4306990.2438  -2457935.3017   1  13   0.0091   0.0103   0.0074  -0.0079   0.0064  -0.0059   0.00   11.5
2101 139619.000   4006966.5158  -4306990.2426  -2457935.3010   1  13   0.0091   0.0103   0.0074  -0.0079   0.0064  -0.0059   0.00   11.4
2101 139620.000   4006966.5183  -4306990.2462  -2457935.2999   1  13   0.0091   0.0103   0.0074  -0.0079   0.0064  -0.0060   0.00   11.2
2101 139621.000   4006966.5130  -4306990.2395  -2457935.2985   1  13   0.0091   0.0103   0.0074  -0.0079   0.0064  -0.0060   0.00   11.0
2101 139622.000   4006966.5139  -4306990.2438  -2457935.2992   1  13   0.0091   0.0104   0.0074  -0.0079   0.0064  -0.0060   0.00   10.8
2101 139623.000   4006966.5251  -4306990.2658  -2457935.3065   1  13   0.0064   0.0072   0.0052  -0.0056   0.0045  -0.0042   0.00    3.1
2101 139624.000   4006966.5211  -4306990.2621  -2457935.3031   1  13   0.0064   0.0072   0.0052  -0.0056   0.0045  -0.0042   0.00    3.2
2101 139625.000   4006966.5185  -4306990.2586  -2457935.3018   1  13   0.0064   0.0073   0.0052  -0.0056   0.0045  -0.0042   0.00    3.2
2101 139626.000   4006966.5217  -4306990.2651  -2457935.3040   1  13   0.0064   0.0073   0.0052  -0.0056   0.0045  -0.0042   0.00    3.3
2101 139627.000   4006966.5222  -4306990.2678  -2457935.3060   1  13   0.0064   0.0073   0.0052  -0.0056   0.0045  -0.0042   0.00    3.4
2101 139628.000   4006966.5188  -4306990.2653  -2457935.3026   1  13   0.0064   0.0074   0.0052  -0.0056   0.0045  -0.0042   0.00    3.5
2101 139629.000   4006966.5248  -4306990.2741  -2457935.3062   1  13   0.0065   0.0074   0.0052  -0.0057   0.0046  -0.0042   0.00    3.6
2101 139630.000   4006966.5223  -4306990.2718  -2457935.3076   1  13   0.0065   0.0076   0.0052  -0.0057   0.0046  -0.0042   0.00    3.7
2101 139631.000   4006966.5245  -4306990.2776  -2457935.3055   1  13   0.0065   0.0079   0.0053  -0.0059   0.0047  -0.0043   0.00    3.8
2101 139632.000   4006966.5199  -4306990.2577  -2457935.3039   1  12   0.0067   0.0091   0.0053  -0.0065   0.0050  -0.0044   0.00    3.5
2101 139633.000   4006966.5234  -4306990.2639  -2457935.3069   1  12   0.0067   0.0091   0.0053  -0.0065   0.0050  -0.0044   0.00    3.5
2101 139634.000   4006966.5171  -4306990.2587  -2457935.3019   1  12   0.0067   0.0091   0.0053  -0.0065   0.0050  -0.0044   0.00    3.6
2101 139635.000   4006966.5234  -4306990.2628  -2457935.3064   1  12   0.0067   0.0091   0.0053  -0.0065   0.0050  -0.0044   0.00    3.6
2101 139636.000   4006966.5185  -4306990.2615  -2457935.3059   1  12   0.0067   0.0091   0.0053  -0.0065   0.0050  -0.0044   0.00    3.6
2101 139637.000   4006966.5187  -4306990.2628  -2457935.3082   1  12   0.0067   0.0091   0.0053  -0.0065   0.0050  -0.0044   0.00    3.6
2101 139638.000   4006966.5160  -4306990.2590  -2457935.3042   1  12   0.0067   0.0091   0.0053  -0.0065   0.0050  -0.0044   0.00    3.6
2101 139639.000   4006966.5168  -4306990.2560  -2457935.3035   1  12   0.0067   0.0091   0.0053  -0.0065   0.0050  -0.0044   0.00    3.6
2101 139640.000   4006966.5182  -4306990.2573  -2457935.3042   1  12   0.0067   0.0091   0.0053  -0.0065   0.0050  -0.0044   0.00    3.6
2101 139641.000   4006966.5124  -4306990.2528  -2457935.3037   1  12   0.0067   0.0091   0.0053  -0.0065   0.0050  -0.0044   0.00    3.6
2101 139642.000   4006966.5150  -4306990.2550  -2457935.3044   1  12   0.0067   0.0091   0.0053  -0.0065   0.0050  -0.0044   0.00    3.6
2101 139643.000   4006966.5133  -4306990.2554  -2457935.3027   1  12   0.0067   0.0091   0.0053  -0.0065   0.0050  -0.0044   0.00    4.5
2101 139644.000   4006966.5151  -4306990.2535  -2457935.3011   1  12   0.0067   0.0091   0.0053  -0.0065   0.0050  -0.0044   0.00    4.7
2101 139645.000   4006966.5120  -4306990.2519  -2457935.3018   1  12   0.0067   0.0091   0.0053  -0.0065   0.0050  -0.0044   0.00    4.8
2101 139646.000   4006966.5157  -4306990.2558  -2457935.3033   1  12   0.0067   0.0091   0.0053  -0.0065   0.0050  -0.0044   0.00    5.0
2101 139647.000   4006966.5122  -4306990.2529  -2457935.3024   1  12   0.0067   0.0091   0.0053  -0.0065   0.0050  -0.0044   0.00    5.1
2101 139648.000   4006966.5137  -4306990.2546  -2457935.3047   1  12   0.0067   0.0091   0.0053  -0.0065   0.0050  -0.0044   0.00    5.2
2101 139649.000   4006966.5130  -4306990.2515  -2457935.3035   1  12   0.0067   0.0091   0.0053  -0.0065   0.0050  -0.0044   0.00    5.4
2101 139650.000   4006966.5150  -4306990.2560  -2457935.3059   1  12   0.0067   0.0091   0.0053  -0.0065   0.0050  -0.0044   0.00    5.5
2101 139651.000   4006966.5144  -4306990.2551  -2457935.3044   1  12   0.0067   0.0091   0.0053  -0.0065   0.0050  -0.0044   0.00    5.7
2101 139652.000   4006966.5177  -4306990.2564  -2457935.3045   1  12   0.0067   0.0091   0.0053  -0.0065   0.0050  -0.0044   0.00    5.8
