     3.03           OBSERVATION DATA    M: Mixed            RINEX VERSION / TYPE
RTKCONV demo5 b33c                      20210328 204012 UTC PGM / RUN BY / DATE 
log: C:\data-RADARZ\20200410_unicamp\helicoidal\gnss_logge  COMMENT             
format: u-blox                                              COMMENT             
                                                            MARKER NAME         
                                                            MARKER NUMBER       
                                                            MARKER TYPE         
                                                            OBSERVER / AGENCY   
                                                            REC # / TYPE / VERS 
                                                            ANT # / TYPE        
  4006964.9521 -4306985.9548 -2457933.1629                  APPROX POSITION XYZ 
        0.0000        0.0000        0.0000                  ANTENNA: DELTA H/E/N
G    4 C1C L1C D1C S1C                                      SYS / # / OBS TYPES 
R    4 C1C L1C D1C S1C                                      SYS / # / OBS TYPES 
  2020     4    13    14    40   24.0010000     GPS         TIME OF FIRST OBS   
  2020     4    13    15    13   55.0020000     GPS         TIME OF LAST OBS    
G                                                           SYS / PHASE SHIFT   
R                                                           SYS / PHASE SHIFT   
  0                                                         GLONASS SLOT / FRQ #
 C1C    0.000 C1P    0.000 C2C    0.000 C2P    0.000        GLONASS COD/PHS/BIS 
                                                            END OF HEADER       
> 2020  4 13 14 40 24.0010000  0  9                     
G 8  21493883.475 1 112951116.98611      -299.389          46.000  
G10  23538640.415 1 123696380.88511     -2283.800          43.000  
G32  21059251.853 1 110667115.92011     -2175.208          50.000  
G14  20360270.189 1 106993940.34111      -200.218          46.000  
G27  21398332.496 1 112448999.25711     -2297.628          46.000  
G11  22778107.593 1 119699752.46311      2022.303          40.000  
G 1  25067168.375 1 131728861.618 1      2612.569          39.000  
G22  24046032.570 1 126362741.72411      1334.833          37.000  
G31  23912913.994 1 125663200.04911      2008.646          42.000  
> 2020  4 13 14 40 25.0010000  0  9                     
G 8  21493940.712 1 112951416.604 1      -299.614          46.000  
G10  23539075.170 1 123698664.707 1     -2283.512          43.000  
G32  21059665.912 1 110669291.185 1     -2175.220          50.000  
G14  20360308.082 1 106994140.688 1      -200.418          46.000  
G27  21398769.441 1 112451297.066 1     -2297.968          46.000  
G11  22777722.711 1 119697730.364 1      2022.142          40.000  
G 1  25066671.035 1 131726249.055 1      2612.740          39.000  
G22  24045778.381 1 126361406.778 1      1334.851          37.000  
G31  23912531.642 1 125661191.436 1      2008.949          42.000  
> 2020  4 13 14 40 26.0010000  0  9                     
G 8  21493997.879 1 112951716.609 1      -300.094          46.000  
G10  23539509.410 1 123700948.222 1     -2283.347          43.000  
G32  21060080.294 1 110671466.676 1     -2175.562          51.000  
G14  20360346.359 1 106994341.462 1      -201.039          46.000  
G27  21399206.996 1 112453595.138 1     -2298.073          46.000  
G11  22777337.506 1 119695708.224 1      2022.387          40.000  
G 1  25066173.503 1 131723636.072 1      2613.547          39.000  
G22  24045524.105 1 126360071.623 1      1334.973          37.000  
G31  23912149.343 1 125659182.590 1      2008.991          42.000  
> 2020  4 13 14 40 27.0010000  0 11                     
G 8  21494055.491 1 112952017.286 1      -300.871          46.000  
G10  23539943.658 1 123703231.675 1     -2283.285          43.000  
G32  21060495.068 1 110673642.675 1     -2176.147          51.000  
G14  20360384.523 1 106994542.893 1      -201.692          46.000  
G27  21399644.368 1 112455893.780 1     -2298.796          46.000  
G11  22776952.816 1 119693686.385 1      2021.740          40.000  
G 1  25065676.460 1 131721023.003 1      2613.251          39.000  
R 5  21077774.587 1 112672741.33311       595.581          45.000  
G22  24045269.882 1 126358736.539 1      1335.199          37.000  
R 4  20607043.816 1 110349745.82511     -2378.589          43.000  
G31  23911766.947 1 125657173.794 1      2008.757          42.000  
> 2020  4 13 14 40 28.0010000  0 11                     
G 8  21494112.763 1 112952318.607 1      -301.964          46.000  
G10  23540377.925 1 123705515.063 1     -2283.508          43.000  
G32  21060909.694 1 110675819.147 1     -2176.990          51.000  
G14  20360422.922 1 106994744.972 1      -202.498          46.000  
G27  21400081.715 1 112458192.912 1     -2299.466          46.000  
G11  22776568.178 1 119691664.756 1      2021.190          40.000  
G 1  25065179.050 1 131718409.770 1      2613.260          39.000  
R 5  21077663.429 1 112672146.152 1       594.690          46.000  
G22  24045015.894 2 126357401.515 1      1334.869          36.000  
R 4  20607488.072 1 110352124.609 1     -2379.004          43.000  
G31  23911384.386 1 125655164.993 1      2008.464          41.000  
> 2020  4 13 14 40 29.0010000  0 11                     
G 8  21494170.706 1 112952620.663 1      -302.487          46.000  
G10  23540812.112 1 123707798.503 1     -2283.574          43.000  
G32  21061324.215 1 110677996.223 1     -2177.502          51.000  
G14  20360461.513 1 106994947.848 1      -203.448          46.000  
G27  21400518.755 1 112460492.722 1     -2300.287          46.000  
G11  22776183.401 1 119689643.500 1      2020.844          40.000  
G 1  25064682.024 1 131715796.557 1      2613.012          39.000  
R 5  21077552.009 1 112671551.591 1       594.031          45.000  
G22  24044761.941 2 126356066.680 1      1334.412          36.000  
R 4  20607932.503 1 110354503.812 1     -2379.609          43.000  
G31  23911002.061 1 125653156.333 1      2008.482          41.000  
> 2020  4 13 14 40 30.0010000  0 11                     
G 8  21494228.501 1 112952923.696 1      -303.346          46.000  
G10  23541246.343 1 123710082.199 1     -2283.636          43.000  
G32  21061739.129 1 110680174.097 1     -2178.107          51.000  
G14  20360500.201 1 106995151.676 1      -204.133          46.000  
G27  21400956.302 1 112462793.344 1     -2300.924          46.000  
G11  22775798.423 1 119687622.770 1      2020.566          40.000  
G 1  25064184.850 1 131713183.479 1      2613.482          39.000  
R 5  21077440.589 1 112670957.819 1       593.659          45.000  
G22  24044507.447 2 126354732.214 1      1334.094          36.000  
R 4  20608376.716 1 110356883.588 1     -2379.727          43.000  
G31  23910619.857 1 125651147.989 1      2008.541          41.000  
> 2020  4 13 14 40 31.0010000  0 11                     
G 8  21494286.741 1 112953227.374 1      -303.739          46.000  
G10  23541680.810 1 123712365.824 1     -2283.371          43.000  
G32  21062153.859 1 110682352.469 1     -2178.479          51.000  
G14  20360539.263 1 106995356.174 1      -204.637          46.000  
G27  21401393.988 1 112465094.505 1     -2301.095          46.000  
G11  22775413.681 1 119685602.290 1      2021.033          39.000  
G 1  25063688.007 1 131710570.315 1      2613.331          39.000  
R 5  21077329.327 1 112670364.587 1       593.134          45.000  
G22  24044253.415 2 126353397.807 1      1334.564          36.000  
R 4  20608820.841 1 110359263.637 1     -2379.878          43.000  
G31  23910237.471 1 125649139.687 1      2008.552          41.000  
> 2020  4 13 14 40 32.0010000  0 11                     
G 8  21494344.868 1 112953531.619 1      -304.740          46.000  
G10  23542115.390 1 123714649.297 1     -2283.480          43.000  
G32  21062568.328 1 110684531.205 1     -2178.943          51.000  
G14  20360578.500 1 106995561.223 1      -205.408          46.000  
G27  21401832.024 1 112467396.090 1     -2301.389          46.000  
G11  22775028.659 1 119683581.961 1      2020.187          39.000  
G 1  25063191.025 1 131707956.876 1      2613.355          39.000  
R 5  21077218.300 1 112669771.752 1       592.456          45.000  
G22  24043999.349 2 126352063.360 1      1334.387          36.000  
R 4  20609265.220 1 110361643.830 1     -2380.168          43.000  
G31  23909855.599 1 125647131.286 1      2008.546          41.000  
> 2020  4 13 14 40 33.0010000  0 11                     
G 8  21494402.768 1 112953836.765 1      -305.528          46.000  
G10  23542549.587 1 123716932.953 1     -2283.436          43.000  
G32  21062982.945 1 110686710.693 1     -2179.608          51.000  
G14  20360617.771 1 106995767.184 1      -206.296          46.000  
G27  21402270.391 1 112469698.484 1     -2302.599          46.000  
G11  22774643.978 1 119681562.131 1      2019.707          39.000  
G 1  25062693.825 1 131705343.578 1      2613.601          39.000  
R 5  21077107.247 1 112669179.703 1       591.901          45.000  
G22  24043745.475 2 126350729.227 1      1333.875          36.000  
R 4  20609709.511 1 110364024.590 1     -2380.910          43.000  
G31  23909473.701 1 125645123.157 1      2008.296          41.000  
> 2020  4 13 14 40 34.0010000  0 11                     
G 8  21494460.868 1 112954142.846 1      -306.597          46.000  
G10  23542984.088 1 123719216.824 1     -2283.810          43.000  
G32  21063398.034 1 110688890.960 1     -2180.560          51.000  
G14  20360657.209 1 106995974.096 1      -207.385          46.000  
G27  21402708.906 1 112472001.678 1     -2303.639          46.000  
G11  22774259.174 1 119679542.811 1      2019.312          39.000  
G 1  25062197.043 1 131702730.445 1      2612.983          39.000  
R 5  21076996.455 1 112668588.434 1       591.077          45.000  
G22  24043491.696 1 126349395.431 1      1333.954          36.000  
R 4  20610153.820 1 110366405.937 1     -2381.490          43.000  
G31  23909091.724 1 125643115.342 1      2007.793          42.000  
> 2020  4 13 14 40 35.0010000  0 11                     
G 8  21494519.204 1 112954449.675 1      -307.259          46.000  
G10  23543418.564 1 123721500.739 1     -2283.931          43.000  
G32  21063812.546 1 110691071.792 1     -2181.067          51.000  
G14  20360696.917 1 106996181.738 1      -208.018          46.000  
G27  21403147.709 1 112474305.469 1     -2304.045          46.000  
G11  22773874.763 1 119677523.843 1      2018.903          39.000  
G 1  25061699.948 1 131700117.245 1      2613.312          39.000  
R 5  21076885.760 1 112667997.761 1       590.350          45.000  
G22  24043237.734 1 126348061.801 1      1333.417          36.000  
R 4  20610598.696 1 110368787.657 1     -2381.838          43.000  
G31  23908710.045 1 125641107.638 1      2007.542          42.000  
> 2020  4 13 14 40 36.0010000  0 11                     
G 8  21494577.628 1 112954757.304 1      -307.963          46.000  
G10  23543853.170 1 123723784.758 1     -2284.055          43.000  
G32  21064227.207 1 110693253.279 1     -2181.689          50.000  
G14  20360736.677 1 106996390.216 1      -208.733          46.000  
G27  21403586.530 1 112476609.971 1     -2304.675          46.000  
G11  22773490.632 1 119675505.271 1      2018.896          40.000  
G 1  25061202.887 1 131697504.100 1      2613.028          39.000  
R 5  21076775.300 1 112667407.745 1       589.880          45.000  
G22  24042983.729 2 126346728.403 1      1333.191          36.000  
R 4  20611043.659 1 110371169.816 1     -2382.272          43.000  
G31  23908328.068 1 125639100.107 1      2007.348          42.000  
> 2020  4 13 14 40 37.0010000  0 11                     
G 8  21494636.033 1 112955065.704 1      -308.602          46.000  
G10  23544287.803 1 123726068.800 1     -2283.810          43.000  
G32  21064642.164 1 110695435.361 1     -2182.227          50.000  
G14  20360776.420 1 106996599.456 1      -209.499          46.000  
G27  21404025.472 1 112478915.097 1     -2305.208          46.000  
G11  22773106.692 1 119673487.066 1      2018.189          40.000  
G 1  25060705.957 1 131694890.911 1      2613.181          39.000  
R 5  21076664.779 1 112666818.353 1       589.319          45.000  
G22  24042729.532 2 126345395.145 1      1333.539          36.000  
R 4  20611488.316 1 110373552.334 1     -2382.198          43.000  
G31  23907945.961 1 125637092.706 1      2007.576          42.000  
> 2020  4 13 14 40 38.0010000  0 11                     
G 8  21494695.076 1 112955374.875 1      -309.850          46.000  
G10  23544722.627 1 123728352.928 1     -2284.238          43.000  
G32  21065057.392 1 110697618.057 1     -2183.160          50.000  
G14  20360816.494 1 106996809.484 1      -210.556          46.000  
G27  21404464.119 1 112481220.875 1     -2306.093          46.000  
G11  22772723.215 1 119671469.231 1      2017.445          40.000  
G 1  25060208.853 2 131692277.715 1      2612.824          39.000  
R 5  21076554.537 1 112666229.600 1       588.294          45.000  
G22  24042475.683 2 126344062.095 1      1332.935          36.000  
R 4  20611933.375 1 110375935.276 1     -2383.469          43.000  
G31  23907564.010 1 125635085.443 1      2007.059          42.000  
> 2020  4 13 14 40 39.0010000  0 11                     
G 8  21494753.779 1 112955684.923 1      -310.851          46.000  
G10  23545157.024 1 123730637.195 1     -2284.415          42.000  
G32  21065472.611 1 110699801.437 1     -2183.966          50.000  
G14  20360856.455 1 106997020.382 1      -211.449          46.000  
G27  21404903.000 1 112483527.405 1     -2306.937          46.000  
G11  22772339.746 1 119669451.850 1      2016.791          40.000  
G 1  25059711.801 1 131689664.609 1      2612.598          39.000  
R 5  21076444.575 1 112665641.579 1       587.573          45.000  
G22  24042221.896 2 126342729.347 1      1332.257          35.000  
R 4  20612378.522 1 110378318.700 1     -2383.992          43.000  
G31  23907182.077 1 125633078.416 1      2006.785          42.000  
> 2020  4 13 14 40 40.0010000  0 11                     
G 8  21494813.258 1 112955995.835 1      -311.571          46.000  
G10  23545591.482 1 123732921.615 1     -2284.575          42.000  
G32  21065887.883 1 110701985.528 1     -2184.680          50.000  
G14  20360896.574 1 106997232.158 1      -212.445          46.000  
G27  21405341.411 1 112485834.682 1     -2307.789          46.000  
G11  22771956.103 1 119667434.918 1      2016.383          41.000  
G 1  25059214.853 1 131687051.568 1      2612.911          39.000  
R 5  21076334.673 1 112665054.299 1       586.664          45.000  
G22  24041968.571 2 126341396.856 1      1332.166          35.000  
R 4  20612823.738 1 110380702.588 1     -2384.248          43.000  
G31  23906800.171 1 125631071.628 1      2006.447          42.000  
> 2020  4 13 14 40 41.0010000  0 11                     
G 8  21494872.213 1 112956307.257 1      -311.494          46.000  
G10  23546026.307 1 123735205.831 1     -2283.656          42.000  
G32  21066303.416 1 110704169.953 1     -2184.381          50.000  
G14  20360936.866 1 106997444.447 1      -212.432          46.000  
G27  21405780.406 1 112488142.347 1     -2307.693          46.000  
G11  22771572.504 1 119665418.076 1      2017.179          41.000  
G 1  25058717.208 1 131684438.268 1      2613.593          39.000  
R 5  21076224.807 1 112664467.357 1       586.987          45.000  
G22  24041715.089 2 126340064.279 1      1332.471          35.000  
R 4  20613268.902 1 110383086.635 1     -2383.831          43.000  
G31  23906417.880 1 125629064.718 1      2007.086          42.000  
> 2020  4 13 14 40 42.0010000  0 12                     
G 8  21494931.317 1 112956618.912 1      -312.367          46.000  
G10  23546460.966 1 123737489.609 1     -2284.166          42.000  
G32  21066718.871 1 110706354.472 1     -2185.236          50.000  
G14  20360977.412 1 106997656.989 1      -213.304          46.000  
G27  21406219.689 1 112490450.125 1     -2308.406          46.000  
G11  22771188.939 1 119663401.110 1      2016.608          41.000  
G 1  25058219.982 1 131681824.433 1      2613.345          39.000  
R 3  23800351.435 4 127405114.12722     -3773.129          34.000  
R 5  21076115.114 1 112663880.499 1       586.041          45.000  
G22  24041461.686 2 126338731.350 1      1332.397          36.000  
R 4  20613713.926 1 110385470.558 1     -2384.527          42.000  
G31  23906035.624 1 125627057.424 1      2006.568          42.000  
> 2020  4 13 14 40 43.0010000  0 12                     
G 8  21494990.657 1 112956931.943 1      -313.855          46.000  
G10  23546895.982 1 123739774.004 1     -2284.997          43.000  
G32  21067134.815 1 110708540.173 1     -2186.505          50.000  
G14  20361017.975 1 106997870.891 1      -214.682          46.000  
G27  21406659.155 1 112492759.152 1     -2309.860          46.000  
G11  22770805.357 1 119661385.061 1      2015.287          41.000  
G 1  25057722.624 1 131679211.169 1      2612.782          39.000  
R 3  23801056.415 4 127408886.88212     -3774.076          34.000  
R 5  21076005.998 1 112663294.870 1       584.918          45.000  
G22  24041208.605 2 126337399.188 1      1332.031          36.000  
R 4  20614159.386 1 110387855.430 1     -2385.333          42.000  
G31  23905653.744 1 125625050.835 1      2006.516          42.000  
> 2020  4 13 14 40 44.0010000  0 12                     
G 8  21495050.110 1 112957246.207 1      -314.749          46.000  
G10  23547330.850 1 123742058.936 1     -2285.022          43.000  
G32  21067550.592 1 110710726.961 1     -2187.177          50.000  
G14  20361058.904 1 106998086.061 1      -215.782          46.000  
G27  21407099.163 1 112495069.287 1     -2310.547          46.000  
G11  22770422.081 1 119659369.869 1      2014.830          41.000  
G 1  25057225.642 1 131676598.355 1      2612.561          39.000  
R 3  23801761.552 4 127412660.525 2     -3773.757          34.000  
R 5  21075896.577 1 112662710.381 1       583.740          45.000  
G22  24040955.604 1 126336067.705 1      1331.207          36.000  
R 4  20614604.786 1 110390241.223 1     -2386.131          43.000  
G31  23905271.837 1 125623044.875 1      2006.017          42.000  
> 2020  4 13 14 40 45.0010000  0 12                     
G 8  21495109.877 1 112957561.311 1      -315.452          46.000  
G10  23547765.631 1 123744344.007 1     -2285.206          42.000  
G32  21067966.919 1 110712914.448 1     -2188.086          50.000  
G14  20361100.104 1 106998302.083 1      -216.630          46.000  
G27  21407539.144 1 112497380.176 1     -2311.761          47.000  
G11  22770038.472 1 119657355.124 1      2014.232          41.000  
G 1  25056728.189 1 131673985.644 1      2612.430          39.000  
R 3  23802466.706 4 127416434.227 2     -3773.829          34.000  
R 5  21075787.504 1 112662126.576 1       583.344          45.000  
G22  24040702.802 1 126334736.470 1      1330.872          37.000  
R 4  20615050.421 1 110392627.476 1     -2386.461          43.000  
G31  23904890.323 1 125621039.174 1      2005.386          41.000  
> 2020  4 13 14 40 46.0010000  0 12                     
G 8  21495169.914 1 112957877.258 1      -316.313          46.000  
G10  23548200.517 1 123746629.187 1     -2285.009          42.000  
G32  21068383.133 1 110715102.579 1     -2188.391          50.000  
G14  20361141.103 1 106998518.947 1      -217.286          46.000  
G27  21407979.229 1 112499691.731 1     -2311.776          47.000  
G11  22769655.301 1 119655340.794 1      2013.887          41.000  
G 1  25056230.762 1 131671372.954 1      2612.649          39.000  
R 3  23803171.896 4 127420207.912 2     -3773.337          35.000  
R 5  21075678.597 1 112661543.463 1       582.697          45.000  
G22  24040450.141 1 126333405.478 1      1330.902          37.000  
R 4  20615496.056 1 110395014.165 1     -2386.795          43.000  
G31  23904508.782 1 125619033.640 1      2005.521          42.000  
> 2020  4 13 14 40 47.0010000  0 12                     
G 8  21495229.856 1 112958193.848 1      -317.201          46.000  
G10  23548635.237 1 123748914.338 1     -2285.226          42.000  
G32  21068799.548 1 110717291.223 1     -2189.124          50.000  
G14  20361182.679 1 106998736.485 1      -218.018          46.000  
G27  21408419.402 1 112502003.845 1     -2312.564          47.000  
G11  22769272.007 1 119653326.714 1      2014.028          41.000  
G 1  25055733.212 1 131668760.170 1      2612.634          39.000  
R 3  23803876.998 4 127423981.429 2     -3773.233          34.000  
R 5  21075569.621 1 112660960.864 1       582.153          45.000  
G22  24040197.392 1 126332074.579 1      1330.548          37.000  
R 4  20615941.935 1 110397401.147 1     -2387.318          43.000  
G31  23904127.216 1 125617028.155 1      2005.209          42.000  
> 2020  4 13 14 40 48.0010000  0 12                     
G 8  21495290.225 1 112958511.212 1      -317.276          45.000  
G10  23549070.061 1 123751199.555 1     -2284.921          42.000  
G32  21069215.762 1 110719480.492 1     -2189.526          50.000  
G14  20361224.315 1 106998954.828 1      -218.454          46.000  
G27  21408859.575 1 112504316.643 1     -2312.928          47.000  
G11  22768888.826 1 119651313.052 1      2013.560          41.000  
G 1  25055236.064 1 131666147.389 1      2613.011          39.000  
R 3  23804582.022 2 127427755.015 1     -3773.894          34.000  
R 5  21075460.923 1 112660378.939 1       581.836          46.000  
G22  24039944.800 1 126330743.858 1      1330.743          37.000  
R 4  20616387.657 1 110399788.591 1     -2387.420          43.000  
G31  23903745.876 1 125615022.815 1      2005.525          42.000  
> 2020  4 13 14 40 49.0010000  0 12                     
G 8  21495350.707 1 112958829.324 1      -318.428          46.000  
G10  23549505.034 1 123753484.782 1     -2285.002          42.000  
G32  21069632.421 1 110721670.288 1     -2189.868          50.000  
G14  20361266.099 1 106999173.871 1      -219.083          46.000  
G27  21409299.417 1 112506629.995 1     -2313.233          47.000  
G11  22768506.151 1 119649299.671 1      2013.195          40.000  
G 1  25054738.689 1 131663534.535 1      2613.085          39.000  
R 3  23805287.255 4 127431528.432 2     -3773.457          34.000  
R 5  21075352.348 1 112659797.588 1       581.256          46.000  
G22  24039692.086 2 126329413.267 1      1330.743          37.000  
R 4  20616833.894 1 110402176.342 1     -2387.758          43.000  
G31  23903364.441 1 125613017.557 1      2005.482          42.000  
> 2020  4 13 14 40 50.0010000  0 12                     
G 8  21495411.704 1 112959148.037 1      -318.816          46.000  
G10  23549939.588 1 123755769.910 1     -2284.840          42.000  
G32  21070049.219 1 110723860.554 1     -2190.393          50.000  
G14  20361308.085 1 106999393.558 1      -219.921          46.000  
G27  21409740.044 1 112508943.891 1     -2314.224          47.000  
G11  22768122.805 1 119647286.508 1      2013.010          40.000  
G 1  25054241.271 1 131660921.514 1      2613.267          39.000  
R 3  23805992.183 4 127435301.643 2     -3773.344          34.000  
R 5  21075243.694 1 112659216.717 1       580.536          46.000  
G22  24039439.424 1 126328082.714 1      1330.713          37.000  
R 4  20617279.651 1 110404564.326 1     -2388.089          43.000  
G31  23902983.284 1 125611012.290 1      2005.470          42.000  
> 2020  4 13 14 40 51.0010000  0 12                     
G 8  21495472.344 1 112959467.232 1      -318.782          46.000  
G10  23550374.448 1 123758054.782 1     -2284.124          42.000  
G32  21070466.070 1 110726051.122 1     -2190.399          50.000  
G14  20361349.825 1 106999613.720 1      -219.986          46.000  
G27  21410180.627 1 112511258.096 1     -2313.948          47.000  
G11  22767739.834 1 119645273.384 1      2013.927          40.000  
G 1  25053743.992 1 131658308.209 1      2613.347          39.000  
R 3  23806697.163 4 127439074.525 2     -3772.713          34.000  
R 5  21075134.805 1 112658636.132 1       580.811          45.000  
G22  24039186.404 1 126326752.041 1      1331.268          37.000  
R 4  20617725.469 1 110406952.384 1     -2387.695          43.000  
G31  23902602.250 1 125609006.880 1      2005.645          42.000  
> 2020  4 13 14 40 52.0010000  0 12                     
G 8  21495533.324 1 112959786.819 1      -320.318          46.000  
G10  23550809.228 1 123760339.344 1     -2284.828          42.000  
G32  21070882.729 1 110728241.921 1     -2191.711          50.000  
G14  20361391.898 1 106999834.273 1      -221.411          46.000  
G27  21410620.870 1 112513572.596 1     -2315.342          47.000  
G11  22767356.679 1 119643260.300 1      2012.268          40.000  
G 1  25053246.722 1 131655694.474 1      2613.280          39.000  
R 3  23807402.056 4 127442846.960 2     -3773.043          34.000  
R 5  21075026.055 1 112658055.775 1       579.657          45.000  
G22  24038933.202 1 126325421.159 1      1330.249          37.000  
R 4  20618171.366 1 110409340.467 1     -2388.764          43.000  
G31  23902220.867 1 125607001.198 1      2005.222          42.000  
> 2020  4 13 14 40 53.0010000  0 12                     
G 8  21495594.652 1 112960107.745 1      -321.769          46.000  
G10  23551244.079 1 123762624.514 1     -2285.359          42.000  
G32  21071300.086 1 110730433.860 1     -2192.432          50.000  
G14  20361434.302 1 107000056.150 1      -222.501          46.000  
G27  21411061.435 1 112515888.269 1     -2316.279          47.000  
G11  22766973.638 1 119641248.095 1      2012.017          40.000  
G 1  25052749.269 1 131653081.275 1      2612.898          39.000  
R 3  23808107.062 2 127446619.892 1     -3773.069          34.000  
R 5  21074918.012 1 112657476.611 1       578.552          46.000  
G22  24038680.008 1 126324091.008 1      1329.883          37.000  
R 4  20618617.524 1 110411729.502 1     -2389.406          43.000  
G31  23901839.501 1 125604996.218 1      2004.630          42.000  
> 2020  4 13 14 40 54.0010000  0 12                     
G 8  21495655.999 1 112960429.877 1      -322.734          46.000  
G10  23551678.860 1 123764910.211 1     -2286.215          42.000  
G32  21071717.565 1 110732626.879 1     -2193.768          50.000  
G14  20361477.168 1 107000279.269 1      -223.926          46.000  
G27  21411502.306 1 112518205.065 1     -2317.669          47.000  
G11  22766590.920 1 119639236.732 1      2010.696          40.000  
G 1  25052252.086 1 131650468.542 1      2612.260          39.000  
R 3  23808812.129 4 127450393.236 2     -3773.767          34.000  
R 5  21074810.344 1 112656898.563 1       577.496          46.000  
G22  24038426.744 2 126322761.518 1      1328.827          36.000  
R 4  20619063.866 1 110414119.421 1     -2390.517          43.000  
G31  23901458.449 1 125602991.855 1      2003.992          42.000  
> 2020  4 13 14 40 55.0010000  0 12                     
G 8  21495717.842 1 112960753.100 1      -323.488          46.000  
G10  23552114.304 1 123767196.254 1     -2285.994          43.000  
G32  21072135.331 1 110734820.786 1     -2194.000          50.000  
G14  20361520.113 1 107000503.468 1      -224.518          47.000  
G27  21411943.518 1 112520522.794 1     -2317.885          47.000  
G11  22766208.394 1 119637226.023 1      2010.319          40.000  
G 1  25051755.348 1 131647856.096 1      2612.651          39.000  
R 3  23809516.943 4 127454166.864 2     -3773.511          34.000  
R 5  21074702.825 1 112656321.480 1       576.892          46.000  
G22  24038173.629 1 126321432.493 1      1329.266          36.000  
R 4  20619510.347 1 110416510.036 1     -2390.659          43.000  
G31  23901077.372 1 125600987.916 1      2004.187          42.000  
> 2020  4 13 14 40 56.0010000  0 12                     
G 8  21495779.756 1 112961076.920 1      -324.126          46.000  
G10  23552549.635 1 123769482.176 1     -2285.791          43.000  
G32  21072552.898 1 110737015.147 1     -2194.592          50.000  
G14  20361562.832 1 107000728.272 1      -225.062          47.000  
G27  21412384.964 1 112522840.996 1     -2318.179          47.000  
G11  22765825.911 1 119635215.483 1      2010.570          40.000  
G 1  25051258.348 1 131645243.468 1      2612.888          40.000  
R 3  23810221.924 4 127457940.222 2     -3772.806          34.000  
R 5  21074595.148 1 112655744.833 1       576.367          46.000  
G22  24037920.042 2 126320103.510 1      1328.534          35.000  
R 4  20619956.767 1 110418900.891 1     -2391.097          43.000  
G31  23900696.119 1 125598983.968 1      2003.727          42.000  
> 2020  4 13 14 40 57.0010000  0 12                     
G 8  21495841.433 1 112961401.159 1      -324.751          46.000  
G10  23552984.546 1 123771767.822 1     -2285.779          43.000  
G32  21072970.586 1 110739209.760 1     -2195.062          50.000  
G14  20361605.768 1 107000953.505 1      -225.698          47.000  
G27  21412826.420 1 112525159.522 1     -2319.039          47.000  
G11  22765443.089 1 119633205.015 1      2009.884          40.000  
G 1  25050761.122 1 131642630.507 1      2612.529          40.000  
R 3  23810926.869 4 127461713.225 2     -3773.297          34.000  
R 5  21074487.515 1 112655168.451 1       575.983          46.000  
G22  24037666.290 2 126318774.350 1      1328.638          35.000  
R 4  20620403.214 1 110421291.750 1     -2391.181          43.000  
G31  23900314.788 1 125596979.810 1      2003.887          43.000  
> 2020  4 13 14 40 58.0010000  0 12                     
G 8  21495903.321 1 112961726.203 1      -325.228          46.000  
G10  23553419.685 1 123774053.543 1     -2285.417          43.000  
G32  21073388.597 1 110741404.987 1     -2195.380          50.000  
G14  20361648.835 1 107001179.553 1      -226.349          46.000  
G27  21413268.198 1 112527478.707 1     -2319.374          47.000  
G11  22765060.126 1 119631194.916 1      2009.581          40.000  
G 1  25050264.035 1 131640017.505 1      2613.291          40.000  
R 3  23811631.936 2 127465486.166 1     -3772.459          35.000  
R 5  21074379.760 1 112654592.697 1       575.684          46.000  
G22  24037413.035 2 126317445.395 1      1328.821          35.000  
R 4  20620849.826 1 110423683.016 1     -2391.235          43.000  
G31  23899933.519 1 125594975.804 1      2004.249          43.000  
> 2020  4 13 14 40 59.0010000  0 12                     
G 8  21495965.321 1 112962051.595 1      -325.959          46.000  
G10  23553854.649 1 123776338.895 1     -2285.441          43.000  
G32  21073806.591 1 110743600.408 1     -2195.679          50.000  
G14  20361691.946 1 107001405.952 1      -226.898          46.000  
G27  21413709.480 1 112529798.113 1     -2319.790          47.000  
G11  22764677.356 1 119629184.738 1      2009.657          40.000  
G 1  25049766.904 1 131637404.101 1      2613.392          40.000  
R 3  23812336.681 2 127469258.708 1     -3772.719          35.000  
R 5  21074271.892 1 112654017.129 1       575.226          46.000  
G22  24037159.684 2 126316116.175 1      1328.967          35.000  
R 4  20621296.394 1 110426074.256 1     -2391.407          43.000  
G31  23899552.214 1 125592971.523 1      2004.329          42.000  
> 2020  4 13 14 41  0.0010000  0 12                     
G 8  21496027.296 1 112962378.227 1      -327.230          46.000  
G10  23554289.727 1 123778624.809 1     -2286.444          43.000  
G32  21074224.655 1 110745796.929 1     -2197.247          50.000  
G14  20361735.144 1 107001633.623 1      -228.436          46.000  
G27  21414150.909 1 112532118.681 1     -2321.504          47.000  
G11  22764294.812 2 119627175.417 1      2009.186          40.000  
G 1  25049269.748 1 131634791.191 1      2612.459          40.000  
R 3  23813041.582 2 127473031.642 1     -3773.457          35.000  
R 5  21074164.311 1 112653442.718 1       573.669          45.000  
G22  24036906.507 2 126314787.645 1      1327.905          36.000  
R 4  20621743.076 1 110428466.428 1     -2392.764          43.000  
G31  23899171.031 1 125590967.897 1      2002.969          42.000  
> 2020  4 13 14 41  1.0010000  0 12                     
G 8  21496089.986 1 112962705.938 1      -327.964          46.000  
G10  23554724.717 1 123780911.057 1     -2285.889          43.000  
G32  21074642.823 1 110747994.329 1     -2197.540          50.000  
G14  20361778.673 1 107001862.353 1      -228.736          46.000  
G27  21414592.653 1 112534440.146 1     -2321.601          47.000  
G11  22763912.312 1 119625166.758 1      2008.932          40.000  
G 1  25048772.687 1 131632178.530 1      2612.853          40.000  
R 3  23813746.676 2 127476804.798 1     -3772.671          35.000  
R 5  21074057.053 1 112652869.248 1       573.322          45.000  
G22  24036653.610 1 126313459.560 1      1328.241          36.000  
R 4  20622189.977 1 110430859.239 1     -2392.581          43.000  
G31  23898789.953 1 125588964.649 1      2003.672          42.000  
> 2020  4 13 14 41  2.0010000  0 12                     
G 8  21496152.335 1 112963033.632 1      -327.512          46.000  
G10  23555159.751 1 123783196.613 1     -2285.093          43.000  
G32  21075060.721 1 110750191.578 1     -2197.089          50.000  
G14  20361821.836 1 107002091.127 1      -228.877          46.000  
G27  21415034.326 1 112536761.505 1     -2321.168          47.000  
G11  22763529.550 1 119623157.708 1      2009.604          40.000  
G 1  25048275.391 1 131629565.114 1      2613.938          40.000  
R 3  23814451.437 2 127480577.193 1     -3772.059          35.000  
R 5  21073949.647 1 112652295.645 1       573.767          45.000  
G22  24036400.713 2 126312130.927 1      1328.900          36.000  
R 4  20622636.920 1 110433251.700 1     -2392.301          43.000  
G31  23898408.195 1 125586960.818 1      2004.371          42.000  
> 2020  4 13 14 41  3.0010000  0 12                     
G 8  21496214.519 1 112963362.058 1      -329.134          46.000  
G10  23555594.637 1 123785482.161 1     -2285.886          43.000  
G32  21075478.907 1 110752389.377 1     -2198.419          50.000  
G14  20361865.488 1 107002320.604 1      -230.136          46.000  
G27  21415475.948 1 112539083.466 1     -2322.610          47.000  
G11  22763147.320 1 119621148.990 1      2008.169          40.000  
G 1  25047778.321 1 131626951.635 1      2613.132          40.000  
R 3  23815156.252 2 127484349.440 1     -3772.833          35.000  
R 5  21073842.381 1 112651722.600 1       572.430          46.000  
G22  24036148.077 2 126310802.388 1      1328.320          36.000  
R 4  20623083.873 1 110435644.503 1     -2393.307          43.000  
G31  23898026.742 1 125584957.069 1      2003.417          42.000  
> 2020  4 13 14 41  4.0010000  0 12                     
G 8  21496277.157 1 112963691.694 1      -330.715          46.000  
G10  23556029.714 1 123787768.217 1     -2286.697          42.000  
G32  21075897.302 1 110754588.207 1     -2199.695          50.000  
G14  20361909.567 1 107002551.301 1      -231.692          46.000  
G27  21415917.988 1 112541406.510 1     -2323.943          47.000  
G11  22762765.292 1 119619141.061 1      2006.696          40.000  
G 1  25047281.348 1 131624338.578 1      2612.450          40.000  
R 3  23815861.241 2 127488122.107 1     -3773.132          35.000  
R 5  21073735.245 1 112651150.615 1       571.094          45.000  
G22  24035896.227 2 126309474.485 1      1326.984          36.000  
R 4  20623530.877 1 110438038.126 1     -2394.470          43.000  
G31  23897645.525 1 125582953.900 1      2002.643          42.000  
> 2020  4 13 14 41  5.0010000  0 12                     
G 8  21496339.716 1 112964022.381 1      -331.235          46.000  
G10  23556464.443 1 123790054.586 1     -2286.417          42.000  
G32  21076315.828 1 110756787.920 1     -2199.963          50.000  
G14  20361953.664 1 107002783.044 1      -231.995          46.000  
G27  21416360.586 1 112543730.449 1     -2324.134          47.000  
G11  22762383.463 1 119617133.771 1      2006.875          40.000  
G 1  25046783.868 1 131621725.765 1      2612.911          40.000  
R 3  23816566.125 2 127491894.987 1     -3772.891          35.000  
R 5  21073628.275 1 112650579.519 1       570.886          45.000  
G22  24035643.583 2 126308147.006 1      1327.551          37.000  
R 4  20623977.926 1 110440432.404 1     -2394.427          43.000  
G31  23897263.993 1 125580951.124 1      2002.745          42.000  
> 2020  4 13 14 41  6.0010000  0 12                     
G 8  21496402.580 1 112964353.394 1      -331.189          46.000  
G10  23556899.311 1 123792340.606 1     -2285.980          42.000  
G32  21076734.467 1 110758987.801 1     -2199.927          50.000  
G14  20361997.787 1 107003015.146 1      -232.286          46.000  
G27  21416802.941 1 112546054.628 1     -2324.436          47.000  
G11  22762001.347 1 119615126.386 1      2007.418          40.000  
G 1  25046286.607 1 131619112.548 1      2613.175          40.000  
R 3  23817271.175 2 127495667.408 1     -3772.266          35.000  
R 5  21073521.148 1 112650008.637 1       570.685          45.000  
G22  24035391.052 2 126306819.303 1      1327.740          37.000  
R 4  20624425.114 1 110442826.621 1     -2394.124          43.000  
G31  23896882.636 1 125578948.092 1      2003.054          42.000  
> 2020  4 13 14 41  7.0010000  0 12                     
G 8  21496465.148 1 112964684.186 1      -331.159          46.000  
G10  23557333.987 1 123794625.651 1     -2284.820          42.000  
G32  21077152.906 1 110761187.289 1     -2199.713          50.000  
G14  20362041.604 1 107003247.003 1      -231.980          46.000  
G27  21417245.365 1 112548378.435 1     -2323.755          47.000  
G11  22761619.475 1 119613118.395 1      2007.400          40.000  
G 1  25045789.241 1 131616498.290 1      2614.355          40.000  
R 3  23817975.858 2 127499438.704 1     -3771.052          35.000  
R 5  21073414.091 1 112649437.356 1       571.076          45.000  
G22  24035138.565 2 126305490.766 1      1328.882          37.000  
R 4  20624872.293 1 110445220.223 1     -2393.393          43.000  
G31  23896501.104 1 125576944.148 1      2004.552          42.000  
> 2020  4 13 14 41  8.0010000  0 12                     
G 8  21496527.785 1 112965014.996 1      -330.793          46.000  
G10  23557768.340 1 123796910.044 1     -2283.872          42.000  
G32  21077571.545 1 110763386.644 1     -2199.207          50.000  
G14  20362085.762 1 107003478.934 1      -231.986          46.000  
G27  21417687.518 1 112550702.164 1     -2323.639          47.000  
G11  22761237.307 1 119611110.004 1      2008.967          40.000  
G 1  25045291.456 1 131613883.280 1      2615.381          40.000  
R 3  23818680.297 2 127503209.253 1     -3770.158          35.000  
R 5  21073306.877 1 112648865.972 1       571.521          45.000  
G22  24034885.598 2 126304161.677 1      1329.468          37.000  
R 4  20625319.307 1 110447613.511 1     -2393.121          43.000  
G31  23896119.547 1 125574939.676 1      2004.541          42.000  
> 2020  4 13 14 41  9.0010000  0 12                     
G 8  21496590.885 1 112965346.121 1      -331.219          46.000  
G10  23558202.894 1 123799194.033 1     -2283.647          42.000  
G32  21077989.941 1 110765586.158 1     -2199.664          50.000  
G14  20362129.999 1 107003711.174 1      -232.446          46.000  
G27  21418129.751 1 112553026.081 1     -2324.016          47.000  
G11  22760855.042 1 119609101.551 1      2008.607          40.000  
G 1  25044793.810 1 131611267.818 1      2615.665          39.000  
R 3  23819384.754 2 127506979.283 1     -3770.083          36.000  
R 5  21073199.899 1 112648294.743 1       571.143          45.000  
G22  24034632.665 1 126302832.346 1      1329.163          36.000  
R 4  20625766.137 1 110450006.733 1     -2393.091          43.000  
G31  23895737.867 1 125572934.859 1      2004.788          42.000  
> 2020  4 13 14 41 10.0010000  0 12                     
G 8  21496654.064 1 112965677.595 1      -331.749          46.000  
G10  23558637.230 1 123801477.681 1     -2283.775          42.000  
G32  21078408.336 1 110767785.845 1     -2199.884          50.000  
G14  20362174.174 1 107003943.789 1      -232.918          46.000  
G27  21418571.983 1 112555350.246 1     -2324.469          47.000  
G11  22760472.891 1 119607093.069 1      2008.361          40.000  
G 1  25044295.711 1 131608651.970 1      2615.661          39.000  
R 3  23820089.097 2 127510748.819 1     -3769.210          36.000  
R 5  21073092.719 1 112647723.718 1       570.752          45.000  
G22  24034379.428 1 126301502.772 1      1329.779          36.000  
R 4  20626213.273 1 110452399.949 1     -2393.385          43.000  
G31  23895356.309 1 125570929.796 1      2004.783          42.000  
> 2020  4 13 14 41 11.0010000  0 12                     
G 8  21496717.391 1 112966009.650 1      -332.206          46.000  
G10  23559071.811 1 123803761.186 1     -2283.376          42.000  
G32  21078826.757 1 110769985.972 1     -2200.317          50.000  
G14  20362218.506 1 107004176.996 1      -233.584          46.000  
G27  21419014.075 1 112557674.873 1     -2324.809          47.000  
G11  22760091.028 1 119605084.758 1      2008.057          40.000  
G 1  25043797.970 1 131606035.892 1      2615.932          40.000  
R 3  23820793.265 2 127514518.150 1     -3769.536          36.000  
R 5  21072986.142 1 112647153.106 1       570.447          46.000  
G22  24034126.339 2 126300173.213 1      1329.431          36.000  
R 4  20626660.321 1 110454793.325 1     -2393.411          43.000  
G31  23894974.996 1 125568924.661 1      2005.136          42.000  
> 2020  4 13 14 41 12.0010000  0 12                     
G 8  21496780.796 1 112966341.626 1      -331.937          46.000  
G10  23559506.251 1 123806043.889 1     -2282.291          43.000  
G32  21079245.335 1 110772185.828 1     -2199.664          50.000  
G14  20362262.725 1 107004410.099 1      -232.923          46.000  
G27  21419456.063 1 112559999.270 1     -2324.090          47.000  
G11  22759708.519 1 119603075.939 1      2009.031          40.000  
G 1  25043299.705 1 131603418.914 1      2617.694          40.000  
R 3  23821497.417 2 127518286.490 1     -3767.612          36.000  
R 5  21072879.556 1 112646582.255 1       570.953          46.000  
G22  24033872.953 1 126298842.950 1      1330.353          36.000  
R 4  20627107.300 1 110457186.221 1     -2392.613          43.000  
G31  23894593.333 1 125566918.824 1      2006.336          42.000  
> 2020  4 13 14 41 13.0010000  0 12                     
G 8  21496843.922 1 112966673.950 1      -332.867          46.000  
G10  23559940.605 1 123808326.229 1     -2282.652          43.000  
G32  21079663.870 1 110774385.871 1     -2200.525          50.000  
G14  20362307.127 1 107004643.569 1      -233.920          46.000  
G27  21419898.339 1 112562323.915 1     -2325.202          47.000  
G11  22759326.238 1 119601067.069 1      2008.134          40.000  
G 1  25042801.737 1 131600801.546 1      2617.332          40.000  
R 3  23822201.498 2 127522054.471 1     -3768.378          36.000  
R 5  21072772.822 1 112646011.641 1       569.891          46.000  
G22  24033620.038 2 126297512.431 1      1330.536          37.000  
R 4  20627554.235 1 110459579.080 1     -2392.921          43.000  
G31  23894211.566 1 125564912.707 1      2006.237          42.000  
> 2020  4 13 14 41 14.0010000  0 12                     
G 8  21496906.926 1 112967007.552 1      -333.817          46.000  
G10  23560375.115 1 123810609.132 1     -2283.031          43.000  
G32  21080082.684 1 110776587.019 1     -2201.587          50.000  
G14  20362351.677 1 107004878.318 1      -235.288          46.000  
G27  21420340.964 1 112564649.683 1     -2326.103          47.000  
G11  22758944.034 1 119599059.068 1      2007.283          40.000  
G 1  25042303.690 1 131598184.659 1      2616.887          39.000  
R 3  23822905.597 2 127525822.843 1     -3768.321          36.000  
R 5  21072666.419 1 112645442.144 1       568.964          45.000  
G22  24033367.019 2 126296182.599 1      1329.816          37.000  
R 4  20628001.126 1 110461972.846 1     -2394.146          42.000  
G31  23893829.808 1 125562907.247 1      2005.378          42.000  
> 2020  4 13 14 41 15.0010000  0 12                     
G 8  21496970.838 1 112967342.300 1      -335.439          46.000  
G10  23560809.643 1 123812892.454 1     -2283.521          43.000  
G32  21080501.873 1 110778789.118 1     -2202.539          50.000  
G14  20362396.760 1 107005114.207 1      -236.528          46.000  
G27  21420783.632 1 112566976.450 1     -2327.386          47.000  
G11  22758562.171 1 119597051.784 1      2006.933          40.000  
G 1  25041805.609 1 131595568.128 1      2616.103          39.000  
R 3  23823609.774 2 127529591.568 1     -3769.237          36.000  
R 5  21072560.121 1 112644873.644 1       568.097          45.000  
G22  24033114.270 1 126294853.335 1      1328.992          37.000  
R 4  20628448.131 1 110464367.351 1     -2394.881          42.000  
G31  23893448.512 1 125560902.291 1      2004.675          42.000  
> 2020  4 13 14 41 16.0010000  0 12                     
G 8  21497034.592 1 112967678.109 1      -336.232          46.000  
G10  23561244.214 1 123815176.130 1     -2283.805          43.000  
G32  21080921.254 1 110780992.123 1     -2203.497          50.000  
G14  20362441.878 1 107005351.158 1      -237.364          46.000  
G27  21421226.466 1 112569304.164 1     -2328.283          47.000  
G11  22758180.116 1 119595045.178 1      2006.193          40.000  
G 1  25041307.719 1 131592951.871 1      2616.236          39.000  
R 3  23824313.943 2 127533360.509 1     -3769.057          36.000  
R 5  21072453.858 1 112644306.063 1       567.212          45.000  
G22  24032861.669 1 126293524.544 1      1328.357          37.000  
R 4  20628895.118 1 110466762.541 1     -2395.288          42.000  
G31  23893067.364 1 125558897.757 1      2004.214          42.000  
> 2020  4 13 14 41 17.0010000  0 12                     
G 8  21497098.835 1 112968014.779 1      -337.235          46.000  
G10  23561678.812 1 123817459.941 1     -2283.754          43.000  
G32  21081340.705 1 110783195.803 1     -2203.967          50.000  
G14  20362486.917 1 107005588.975 1      -238.277          46.000  
G27  21421669.623 1 112571632.600 1     -2328.949          47.000  
G11  22757798.253 1 119593038.988 1      2005.858          40.000  
G 1  25040809.629 1 131590335.678 1      2616.130          39.000  
R 3  23825017.902 2 127537129.493 1     -3769.305          36.000  
R 5  21072347.979 1 112643739.171 1       566.650          46.000  
G22  24032609.086 1 126292195.981 1      1328.448          37.000  
R 4  20629342.620 1 110469158.201 1     -2395.872          42.000  
G31  23892686.190 1 125556893.455 1      2004.174          43.000  
> 2020  4 13 14 41 18.0010000  0 12                     
G 8  21497163.130 1 112968352.253 1      -338.058          46.000  
G10  23562113.558 1 123819743.839 1     -2283.971          43.000  
G32  21081760.392 1 110785400.117 1     -2204.724          50.000  
G14  20362532.278 1 107005827.607 1      -239.295          46.000  
G27  21422113.138 1 112573961.720 1     -2329.532          47.000  
G11  22757416.643 1 119591033.215 1      2005.500          40.000  
G 1  25040311.617 1 131587719.499 1      2616.607          39.000  
R 3  23825722.018 2 127540898.419 1     -3768.672          36.000  
R 5  21072242.213 1 112643172.978 1       565.643          46.000  
G22  24032356.276 1 126290867.643 1      1328.131          38.000  
R 4  20629789.956 1 110471554.326 1     -2396.594          42.000  
G31  23892304.851 1 125554889.301 1      2004.145          43.000  
> 2020  4 13 14 41 19.0010000  0 12                     
G 8  21497227.687 1 112968690.471 1      -338.631          46.000  
G10  23562548.077 1 123822027.772 1     -2283.807          43.000  
G32  21082180.200 1 110787605.004 1     -2204.968          50.000  
G14  20362577.562 1 107006066.982 1      -239.770          46.000  
G27  21422556.330 1 112576291.455 1     -2329.885          47.000  
G11  22757035.076 1 119589027.780 1      2005.400          40.000  
G 1  25039813.544 1 131585103.311 1      2616.534          39.000  
R 3  23826426.135 2 127544667.323 1     -3768.593          36.000  
R 5  21072136.578 1 112642607.392 1       565.375          46.000  
G22  24032103.780 1 126289539.472 1      1328.192          37.000  
R 4  20630237.554 1 110473950.797 1     -2396.539          42.000  
G31  23891923.511 1 125552885.282 1      2004.305          42.000  
> 2020  4 13 14 41 20.0010000  0 12                     
G 8  21497292.183 1 112969029.412 1      -339.200          46.000  
G10  23562982.841 1 123824311.733 1     -2284.148          43.000  
G32  21082600.306 1 110789810.466 1     -2205.811          50.000  
G14  20362623.360 1 107006307.096 1      -240.526          46.000  
G27  21422999.749 1 112578621.802 1     -2330.751          47.000  
G11  22756653.684 1 119587022.692 1      2004.963          40.000  
G 1  25039315.384 1 131582487.087 1      2615.941          39.000  
R 3  23827130.321 2 127548436.097 1     -3768.901          37.000  
R 5  21072030.900 1 112642042.389 1       564.655          45.000  
G22  24031851.109 1 126288211.430 1      1327.716          37.000  
R 4  20630685.144 1 110476347.601 1     -2396.874          43.000  
G31  23891542.058 1 125550881.377 1      2003.770          42.000  
> 2020  4 13 14 41 21.0010000  0 12                     
G 8  21497356.924 1 112969368.991 1      -339.683          46.000  
G10  23563417.534 1 123826595.588 1     -2283.524          43.000  
G32  21083020.420 1 110792016.378 1     -2205.884          51.000  
G14  20362669.306 1 107006547.851 1      -240.749          46.000  
G27  21423443.551 1 112580952.639 1     -2330.772          47.000  
G11  22756271.908 1 119585017.806 1      2005.006          40.000  
G 1  25038817.687 1 131579870.689 1      2616.483          39.000  
R 3  23827834.114 2 127552204.698 1     -3768.198          36.000  
R 5  21071925.169 1 112641477.845 1       564.587          45.000  
G22  24031598.352 1 126286883.422 1      1328.156          37.000  
R 4  20631133.135 1 110478744.657 1     -2396.893          43.000  
G31  23891160.701 1 125548877.474 1      2004.064          42.000  
> 2020  4 13 14 41 22.0010000  0 12                     
G 8  21497421.830 1 112969708.590 1      -339.906          46.000  
G10  23563852.324 1 123828878.794 1     -2283.280          43.000  
G32  21083440.420 1 110794222.164 1     -2205.988          51.000  
G14  20362715.331 1 107006788.654 1      -241.058          46.000  
G27  21423887.179 1 112583283.397 1     -2331.015          47.000  
G11  22755890.342 1 119583012.554 1      2005.010          40.000  
G 1  25038319.649 1 131577253.554 1      2617.273          39.000  
R 3  23828538.004 2 127555972.477 1     -3767.572          37.000  
R 5  21071819.770 1 112640913.172 1       564.349          45.000  
G22  24031345.873 1 126285554.870 1      1328.772          37.000  
R 4  20631580.645 1 110481141.365 1     -2396.909          43.000  
G31  23890779.169 1 125546872.982 1      2004.634          42.000  
> 2020  4 13 14 41 23.0010000  0 12                     
G 8  21497486.963 1 112970049.330 1      -341.273          46.000  
G10  23564286.922 1 123831162.421 1     -2283.906          43.000  
G32  21083860.578 1 110796428.935 1     -2207.074          51.000  
G14  20362761.400 1 107007030.619 1      -242.426          46.000  
G27  21424330.677 1 112585615.168 1     -2332.097          47.000  
G11  22755508.828 1 119581008.067 1      2004.258          40.000  
G 1  25037821.689 1 131574636.783 1      2616.863          39.000  
R 3  23829241.867 2 127559740.639 1     -3768.058          37.000  
R 5  21071714.423 1 112640349.501 1       563.330          45.000  
G22  24031092.967 1 126284226.890 1      1327.789          36.000  
R 4  20632028.243 1 110483538.857 1     -2397.741          43.000  
G31  23890397.865 1 125544869.020 1      2003.841          42.000  
> 2020  4 13 14 41 24.0010000  0 12                     
G 8  21497552.314 1 112970391.141 1      -342.677          46.000  
G10  23564721.668 1 123833446.404 1     -2284.430          44.000  
G32  21084280.631 1 110798636.603 1     -2208.325          51.000  
G14  20362807.695 1 107007273.663 1      -243.854          46.000  
G27  21424774.523 1 112587947.892 1     -2333.418          46.000  
G11  22755127.305 1 119579004.223 1      2003.258          40.000  
G 1  25037323.451 1 131572020.314 1      2615.678          39.000  
R 3  23829945.852 2 127563509.035 1     -3768.366          36.000  
R 5  21071609.311 1 112639786.780 1       562.140          45.000  
G22  24030839.983 2 126282899.383 1      1327.026          36.000  
R 4  20632476.278 1 110485937.054 1     -2398.879          44.000  
G31  23890016.603 1 125542865.512 1      2002.925          42.000  
> 2020  4 13 14 41 25.0010000  0 12                     
G 8  21497617.551 1 112970733.948 1      -343.425          46.000  
G10  23565156.763 1 123835730.681 1     -2284.524          44.000  
G32  21084701.120 1 110800845.105 1     -2208.936          51.000  
G14  20362853.991 1 107007517.698 1      -244.608          46.000  
G27  21425218.317 1 112590281.503 1     -2334.265          46.000  
G11  22754746.402 1 119577000.971 1      2003.002          41.000  
G 1  25036825.657 1 131569404.056 1      2616.009          39.000  
R 3  23830650.082 2 127567277.675 1     -3768.757          36.000  
R 5  21071504.139 1 112639224.944 1       561.310          45.000  
G22  24030587.129 1 126281572.271 1      1327.148          36.000  
R 4  20632924.077 1 110488335.857 1     -2399.222          43.000  
G31  23889635.273 1 125540862.362 1      2002.985          42.000  
> 2020  4 13 14 41 26.0010000  0 13                     
G 8  21497682.972 1 112971077.741 1      -343.808          46.000  
G10  23565591.535 1 123838015.239 1     -2284.341          44.000  
G32  21085121.635 1 110803054.436 1     -2209.357          51.000  
G14  20362900.583 1 107007762.741 1      -245.242          46.000  
G27  21425662.442 1 112592615.955 1     -2334.414          46.000  
G11  22754365.542 1 119574998.339 1      2002.581          41.000  
G 1  25036327.698 1 131566787.999 1      2616.361          39.000  
R 3  23831354.172 2 127571046.470 1     -3768.948          36.000  
R 5  21071399.219 1 112638663.949 1       561.084          45.000  
G22  24030334.581 2 126280245.584 1      1326.965          37.000  
R 4  20633372.294 1 110490735.275 1     -2399.254          43.000  
G31  23889253.968 1 125538859.584 1      2002.991          42.000  
G16  25533066.992 9               9     -2160.000          31.000  
> 2020  4 13 14 41 27.0010000  0 14                     
G 8  21497748.315 1 112971421.393 1      -343.776          46.000  
G10  23566026.237 1 123840298.894 1     -2283.264          44.000  
G32  21085542.334 1 110805263.415 1     -2209.033          50.000  
G14  20362947.218 1 107008007.600 1      -244.969          46.000  
G27  21426106.385 1 112594950.126 1     -2334.251          46.000  
G11  22753984.333 1 119572995.111 1      2003.523          41.000  
R26  22210148.114 1 118434193.06011      3316.792          43.000  
G 1  25035829.651 1 131564170.976 1      2617.362          39.000  
R 3  23832058.166 2 127574814.180 2     -3766.945          36.000  
R 5  21071294.056 1 112638102.606 1       561.340          45.000  
G22  24030082.094 1 126278918.122 1      1327.667          37.000  
R 4  20633820.451 1 110493134.123 1     -2398.807          43.000  
G31  23888872.689 1 125536855.998 1      2003.548          42.000  
G16  25533467.596 9 134179277.60915     -2159.731          30.000  
> 2020  4 13 14 41 28.0010000  0 14                     
G 8  21497813.762 1 112971765.778 1      -345.054          46.000  
G10  23566460.826 1 123842582.594 1     -2283.941          44.000  
G32  21085962.605 1 110807472.976 1     -2210.229          50.000  
G14  20362994.029 1 107008253.214 1      -246.300          46.000  
G27  21426550.144 1 112597284.900 1     -2335.046          46.000  
G11  22753603.517 1 119570992.215 1      2002.505          41.000  
R26  22209526.057 1 118430876.780 1      3315.872          43.000  
G 1  25035332.006 1 131561553.948 1      2616.711          39.000  
R 3  23832762.125 2 127578581.866 1     -3767.933          36.000  
R 5  21071188.962 1 112637541.835 1       560.144          45.000  
G22  24029829.292 1 126277590.819 1      1326.648          37.000  
R 4  20634268.564 1 110495533.333 1     -2399.555          43.000  
G31  23888491.149 1 125534852.548 1      2002.884          42.000  
G16  25533880.425 9 134181436.923 4     -2159.843          30.000  
> 2020  4 13 14 41 29.0010000  0 14                     
G 8  21497879.540 1 112972111.357 1      -346.143          46.000  
G10  23566895.738 1 123844866.760 1     -2284.442          43.000  
G32  21086383.303 1 110809683.541 1     -2211.072          50.000  
G14  20363040.813 1 107008500.028 1      -247.398          46.000  
G27  21426994.531 1 112599620.749 1     -2336.286          46.000  
G11  22753222.780 1 119568990.128 1      2001.881          41.000  
R26  22208904.498 1 118427561.530 1      3314.547          43.000  
G 1  25034833.985 1 131558937.312 1      2616.399          39.000  
R 3  23833466.120 2 127582349.911 1     -3768.407          37.000  
R 5  21071084.173 1 112636982.114 1       559.143          45.000  
G22  24029576.840 1 126276264.086 1      1326.587          38.000  
R 4  20634716.851 1 110497933.367 1     -2400.338          43.000  
G31  23888109.731 1 125532849.626 1      2002.578          42.000  
G16  25534287.861 9 134183596.469 3     -2159.620          30.000  
> 2020  4 13 14 41 30.0010000  0 14                     
G 8  21497945.511 1 112972457.972 1      -346.922          46.000  
G10  23567330.615 1 123847151.266 1     -2284.874          43.000  
G32  21086804.115 1 110811894.976 1     -2211.652          50.000  
G14  20363088.042 1 107008747.891 1      -248.136          46.000  
G27  21427439.032 1 112601957.506 1     -2337.067          46.000  
G11  22752842.068 1 119566988.668 1      2001.344          41.000  
R26  22208283.078 1 118424247.080 1      3314.534          43.000  
G 1  25034335.842 1 131556320.949 1      2616.231          39.000  
R 3  23834170.245 2 127586118.170 1     -3768.313          37.000  
R 5  21070979.576 1 112636423.306 1       558.386          46.000  
G22  24029324.492 1 126274937.805 1      1326.221          37.000  
R 4  20635164.938 1 110500334.067 1     -2400.582          43.000  
G31  23887728.601 1 125530847.132 1      2002.317          42.000  
G16  25534698.116 8 134185756.102 3     -2158.994          30.000  
> 2020  4 13 14 41 31.0010000  0 13                     
G 8  21498011.298 1 112972805.070 1      -347.118          46.000  
G10  23567765.404 1 123849435.542 1     -2284.201          43.000  
G32  21087224.962 1 110814106.744 1     -2211.774          50.000  
G14  20363135.515 1 107008996.250 1      -248.505          46.000  
G27  21427884.222 1 112604294.624 1     -2337.211          46.000  
G11  22752460.851 1 119564987.283 1      2001.590          41.000  
G 1  25033837.831 1 131553704.302 1      2616.614          39.000  
R 3  23834874.099 2 127589886.107 1     -3768.045          36.000  
R 5  21070875.172 1 112635864.875 1       558.209          45.000  
G22  24029072.014 1 126273611.444 1      1326.654          37.000  
R 4  20635613.129 1 110502734.886 1     -2400.776          43.000  
