% ref pos   :  4077497.0028  -4216516.3703  -2498190.1626
%  GPST              x-ecef(m)      y-ecef(m)      z-ecef(m)   Q  ns   sdx(m)   sdy(m)   sdz(m)  sdxy(m)  sdyz(m)  sdzx(m) age(s)  ratio
2196 298506.000   4077349.2311  -4216499.7483  -2498426.6204   1   7   0.0104   0.0085   0.0062  -0.0080   0.0055  -0.0060  -0.00    8.3
2196 298507.000   4077349.2312  -4216499.7485  -2498426.6216   1   7   0.0104   0.0085   0.0062  -0.0080   0.0055  -0.0060  -0.00    8.3
2196 298508.000   4077349.2260  -4216499.7416  -2498426.6179   1   7   0.0104   0.0085   0.0062  -0.0080   0.0055  -0.0060  -0.00    8.3
2196 298509.000   4077349.2237  -4216499.7446  -2498426.6164   1   7   0.0104   0.0085   0.0062  -0.0080   0.0055  -0.0060  -0.00    8.2
2196 298510.000   4077349.2215  -4216499.7431  -2498426.6179   1   7   0.0104   0.0085   0.0062  -0.0080   0.0055  -0.0060  -0.00    8.2
2196 298511.000   4077349.2270  -4216499.7455  -2498426.6199   1   7   0.0104   0.0085   0.0062  -0.0080   0.0055  -0.0060  -0.00    8.1
2196 298512.000   4077349.2252  -4216499.7448  -2498426.6155   1   7   0.0104   0.0085   0.0062  -0.0080   0.0055  -0.0060  -0.00    8.1
2196 298513.000   4077349.2216  -4216499.7405  -2498426.6154   1   7   0.0104   0.0085   0.0062  -0.0080   0.0055  -0.0060  -0.00    8.1
2196 298514.000   4077349.2249  -4216499.7456  -2498426.6156   1   7   0.0104   0.0085   0.0062  -0.0080   0.0055  -0.0060  -0.00    8.0
2196 298515.000   4077349.2215  -4216499.7433  -2498426.6154   1   7   0.0104   0.0085   0.0062  -0.0080   0.0055  -0.0060  -0.00    8.0
2196 298516.000   4077349.2218  -4216499.7460  -2498426.6153   1   7   0.0104   0.0085   0.0062  -0.0080   0.0055  -0.0060  -0.00    8.0
2196 298517.000   4077349.2229  -4216499.7454  -2498426.6161   1   7   0.0104   0.0085   0.0062  -0.0080   0.0055  -0.0060  -0.00    7.9
2196 298518.000   4077349.2290  -4216499.7483  -2498426.6179   1   7   0.0104   0.0085   0.0062  -0.0080   0.0055  -0.0060  -0.00    7.9
2196 298519.000   4077349.2210  -4216499.7467  -2498426.6175   1   7   0.0104   0.0085   0.0062  -0.0080   0.0055  -0.0060  -0.00    7.9
2196 298520.000   4077349.2311  -4216499.7506  -2498426.6202   1   7   0.0104   0.0085   0.0062  -0.0080   0.0055  -0.0060  -0.00    7.9
2196 298521.000   4077349.2277  -4216499.7498  -2498426.6184   1   7   0.0104   0.0085   0.0062  -0.0080   0.0055  -0.0060  -0.00    7.8
2196 298522.000   4077349.2273  -4216499.7481  -2498426.6168   1   7   0.0104   0.0085   0.0062  -0.0080   0.0055  -0.0060  -0.00    7.8
2196 298523.000   4077349.2289  -4216499.7485  -2498426.6193   1   7   0.0104   0.0085   0.0062  -0.0080   0.0055  -0.0060  -0.00    7.7
2196 298524.000   4077349.2270  -4216499.7484  -2498426.6201   1   7   0.0104   0.0085   0.0062  -0.0080   0.0055  -0.0060  -0.00    7.7
2196 298525.000   4077349.2300  -4216499.7528  -2498426.6212   1   7   0.0104   0.0085   0.0062  -0.0080   0.0055  -0.0060  -0.00    7.7
2196 298526.000   4077349.2275  -4216499.7501  -2498426.6181   1   7   0.0104   0.0085   0.0062  -0.0080   0.0055  -0.0060  -0.00    7.6
2196 298527.000   4077349.2195  -4216499.7466  -2498426.6167   1   7   0.0087   0.0081   0.0060  -0.0070   0.0051  -0.0052  -0.00    7.2
2196 298528.000   4077349.2261  -4216499.7496  -2498426.6170   1   7   0.0087   0.0081   0.0060  -0.0070   0.0051  -0.0052  -0.00    7.2
2196 298529.000   4077349.2240  -4216499.7476  -2498426.6172   1   7   0.0087   0.0081   0.0060  -0.0070   0.0051  -0.0052  -0.00    7.2
2196 298530.000   4077349.2236  -4216499.7475  -2498426.6155   1   7   0.0087   0.0081   0.0060  -0.0070   0.0051  -0.0052  -0.00    7.1
2196 298531.000   4077349.2214  -4216499.7487  -2498426.6195   1   7   0.0087   0.0081   0.0060  -0.0070   0.0051  -0.0052  -0.00    7.1
2196 298532.000   4077349.2212  -4216499.7486  -2498426.6182   1   7   0.0087   0.0081   0.0060  -0.0070   0.0051  -0.0052  -0.00    7.1
2196 298533.000   4077349.2219  -4216499.7470  -2498426.6172   1   7   0.0087   0.0081   0.0060  -0.0070   0.0051  -0.0052  -0.00    7.0
2196 298534.000   4077349.2151  -4216499.7432  -2498426.6171   1   7   0.0087   0.0081   0.0060  -0.0070   0.0051  -0.0052  -0.00    7.0
2196 298535.000   4077349.2222  -4216499.7468  -2498426.6177   1   7   0.0087   0.0081   0.0060  -0.0070   0.0051  -0.0052  -0.00    7.0
2196 298536.000   4077349.2190  -4216499.7452  -2498426.6175   1   7   0.0087   0.0081   0.0060  -0.0070   0.0051  -0.0052  -0.00    6.9
2196 298537.000   4077349.2195  -4216499.7454  -2498426.6171   1   7   0.0088   0.0081   0.0060  -0.0070   0.0051  -0.0052  -0.00    6.9
2196 298538.000   4077349.2229  -4216499.7459  -2498426.6183   1   7   0.0088   0.0081   0.0060  -0.0070   0.0051  -0.0052  -0.00    6.9
2196 298539.000   4077349.2223  -4216499.7470  -2498426.6174   1   7   0.0088   0.0081   0.0060  -0.0070   0.0051  -0.0052  -0.00    6.8
2196 298540.000   4077349.2231  -4216499.7452  -2498426.6141   1   7   0.0088   0.0081   0.0060  -0.0070   0.0051  -0.0052  -0.00    6.8
2196 298541.000   4077349.2207  -4216499.7446  -2498426.6148   1   7   0.0088   0.0081   0.0060  -0.0070   0.0051  -0.0052  -0.00    6.8
2196 298542.000   4077349.2182  -4216499.7437  -2498426.6164   1   7   0.0088   0.0081   0.0060  -0.0070   0.0051  -0.0052  -0.00    6.7
2196 298543.000   4077349.2251  -4216499.7460  -2498426.6185   1   7   0.0088   0.0081   0.0060  -0.0070   0.0051  -0.0052  -0.00    6.7
2196 298544.000   4077349.2208  -4216499.7457  -2498426.6152   1   7   0.0088   0.0081   0.0060  -0.0070   0.0051  -0.0052  -0.00    6.7
2196 298545.000   4077349.2201  -4216499.7455  -2498426.6153   1   7   0.0088   0.0081   0.0060  -0.0070   0.0051  -0.0052  -0.00    6.6
2196 298546.000   4077349.2206  -4216499.7444  -2498426.6123   1   7   0.0088   0.0081   0.0060  -0.0070   0.0051  -0.0052  -0.00    6.6
2196 298547.000   4077349.2180  -4216499.7416  -2498426.6135   1   7   0.0088   0.0081   0.0060  -0.0070   0.0051  -0.0052  -0.00    6.6
2196 298548.000   4077349.2158  -4216499.7421  -2498426.6142   1   7   0.0088   0.0081   0.0060  -0.0070   0.0051  -0.0052  -0.00    6.5
2196 298549.000   4077349.2162  -4216499.7407  -2498426.6111   1   7   0.0088   0.0081   0.0060  -0.0070   0.0051  -0.0052  -0.00    6.5
2196 298550.000   4077349.2163  -4216499.7425  -2498426.6136   1   7   0.0088   0.0081   0.0060  -0.0070   0.0051  -0.0052  -0.00    6.5
2196 298551.000   4077349.2211  -4216499.7453  -2498426.6153   1   7   0.0088   0.0081   0.0060  -0.0070   0.0051  -0.0052  -0.00    6.4
2196 298552.000   4077349.2189  -4216499.7457  -2498426.6149   1   7   0.0088   0.0081   0.0060  -0.0070   0.0051  -0.0052  -0.00    6.4
2196 298553.000   4077349.2187  -4216499.7449  -2498426.6157   1   7   0.0088   0.0081   0.0060  -0.0070   0.0051  -0.0052  -0.00    6.4
2196 298554.000   4077349.2155  -4216499.7398  -2498426.6148   1   7   0.0088   0.0081   0.0060  -0.0070   0.0051  -0.0052  -0.00    6.3
2196 298555.000   4077349.2203  -4216499.7462  -2498426.6178   1   7   0.0088   0.0081   0.0060  -0.0070   0.0051  -0.0052  -0.00    6.3
2196 298556.000   4077349.2127  -4216499.7408  -2498426.6161   1   7   0.0088   0.0081   0.0059  -0.0070   0.0051  -0.0052  -0.00    6.3
2196 298557.000   4077349.2185  -4216499.7436  -2498426.6144   1   7   0.0088   0.0081   0.0059  -0.0070   0.0051  -0.0052  -0.00    6.2
2196 298558.000   4077349.2135  -4216499.7392  -2498426.6147   1   7   0.0088   0.0081   0.0059  -0.0070   0.0051  -0.0052  -0.00    6.2
2196 298559.000   4077349.2175  -4216499.7425  -2498426.6172   1   7   0.0088   0.0081   0.0059  -0.0070   0.0051  -0.0052  -0.00    6.2
2196 298560.000   4077349.2180  -4216499.7421  -2498426.6159   1   7   0.0088   0.0081   0.0059  -0.0070   0.0051  -0.0052  -0.00    6.1
2196 298561.000   4077349.2183  -4216499.7423  -2498426.6171   1   7   0.0088   0.0081   0.0059  -0.0070   0.0051  -0.0052  -0.00    6.1
2196 298562.000   4077349.2183  -4216499.7419  -2498426.6151   1   7   0.0088   0.0081   0.0059  -0.0070   0.0051  -0.0052  -0.00    6.1
2196 298563.000   4077349.2176  -4216499.7423  -2498426.6166   1   7   0.0088   0.0081   0.0059  -0.0070   0.0051  -0.0052  -0.00    6.0
2196 298564.000   4077349.2197  -4216499.7425  -2498426.6169   1   7   0.0088   0.0081   0.0059  -0.0070   0.0051  -0.0052  -0.00    6.0
2196 298565.000   4077349.2163  -4216499.7427  -2498426.6184   1   7   0.0088   0.0081   0.0059  -0.0070   0.0051  -0.0052  -0.00    6.0
2196 298566.000   4077349.2190  -4216499.7448  -2498426.6186   1   7   0.0088   0.0081   0.0059  -0.0070   0.0051  -0.0052  -0.00    5.9
2196 298567.000   4077349.2184  -4216499.7436  -2498426.6176   1   7   0.0088   0.0081   0.0059  -0.0070   0.0051  -0.0052  -0.00    5.9
2196 298568.000   4077349.2164  -4216499.7436  -2498426.6173   1   7   0.0088   0.0081   0.0059  -0.0070   0.0051  -0.0052  -0.00    5.8
2196 298569.000   4077349.2206  -4216499.7460  -2498426.6170   1   7   0.0088   0.0081   0.0059  -0.0070   0.0051  -0.0052  -0.00    5.8
2196 298570.000   4077349.2183  -4216499.7430  -2498426.6153   1   7   0.0088   0.0081   0.0059  -0.0070   0.0051  -0.0052  -0.00    5.8
2196 298571.000   4077349.2225  -4216499.7455  -2498426.6174   1   7   0.0088   0.0081   0.0059  -0.0070   0.0051  -0.0052  -0.00    5.7
2196 298572.000   4077349.2227  -4216499.7458  -2498426.6164   1   7   0.0088   0.0081   0.0059  -0.0070   0.0051  -0.0052  -0.00    5.7
2196 298573.000   4077349.2199  -4216499.7444  -2498426.6176   1   7   0.0088   0.0081   0.0059  -0.0070   0.0051  -0.0052  -0.00    5.6
2196 298574.000   4077349.2193  -4216499.7457  -2498426.6184   1   7   0.0088   0.0081   0.0059  -0.0070   0.0051  -0.0052  -0.00    5.6
2196 298575.000   4077349.2226  -4216499.7488  -2498426.6190   1   7   0.0088   0.0081   0.0059  -0.0070   0.0051  -0.0052  -0.00    5.6
2196 298576.000   4077349.2197  -4216499.7474  -2498426.6177   1   7   0.0088   0.0081   0.0059  -0.0070   0.0051  -0.0052  -0.00    5.5
2196 298577.000   4077349.2189  -4216499.7455  -2498426.6182   1   7   0.0088   0.0081   0.0059  -0.0070   0.0051  -0.0052  -0.00    5.5
2196 298578.000   4077349.2184  -4216499.7458  -2498426.6136   1   7   0.0088   0.0081   0.0059  -0.0070   0.0051  -0.0052  -0.00    5.4
2196 298579.000   4077349.2219  -4216499.7495  -2498426.6173   1   7   0.0088   0.0081   0.0059  -0.0070   0.0051  -0.0052  -0.00    5.4
2196 298580.000   4077349.2227  -4216499.7469  -2498426.6178   1   7   0.0088   0.0081   0.0059  -0.0070   0.0051  -0.0052  -0.00    5.4
2196 298581.000   4077349.2168  -4216499.7448  -2498426.6148   1   7   0.0088   0.0081   0.0059  -0.0070   0.0051  -0.0052  -0.00    5.3
2196 298582.000   4077349.2194  -4216499.7458  -2498426.6181   1   7   0.0088   0.0081   0.0059  -0.0070   0.0051  -0.0052  -0.00    5.3
2196 298583.000   4077349.2163  -4216499.7450  -2498426.6168   1   7   0.0088   0.0081   0.0059  -0.0070   0.0051  -0.0052  -0.00    5.3
2196 298584.000   4077349.2227  -4216499.7475  -2498426.6182   1   7   0.0088   0.0081   0.0059  -0.0070   0.0051  -0.0052  -0.00    5.2
2196 298585.000   4077349.2189  -4216499.7469  -2498426.6197   1   7   0.0088   0.0081   0.0059  -0.0070   0.0051  -0.0052  -0.00    5.2
2196 298586.000   4077349.2219  -4216499.7497  -2498426.6217   1   7   0.0088   0.0081   0.0059  -0.0070   0.0051  -0.0052  -0.00    5.1
2196 298587.000   4077349.2182  -4216499.7444  -2498426.6180   1   7   0.0088   0.0081   0.0059  -0.0070   0.0051  -0.0052  -0.00    5.1
2196 298588.000   4077349.2217  -4216499.7453  -2498426.6200   1   7   0.0088   0.0081   0.0059  -0.0070   0.0051  -0.0052  -0.00    5.1
2196 298589.000   4077349.2174  -4216499.7454  -2498426.6180   1   7   0.0088   0.0081   0.0059  -0.0070   0.0051  -0.0052  -0.00    5.0
2196 298590.000   4077349.2185  -4216499.7468  -2498426.6176   1   7   0.0088   0.0081   0.0059  -0.0070   0.0051  -0.0052  -0.00    5.0
2196 298591.000   4077349.2268  -4216499.7477  -2498426.6237   1   7   0.0088   0.0081   0.0059  -0.0070   0.0051  -0.0052  -0.00    5.0
2196 298592.000   4077349.2237  -4216499.7481  -2498426.6202   1   7   0.0088   0.0081   0.0059  -0.0070   0.0051  -0.0052  -0.00    4.9
2196 298593.000   4077349.2195  -4216499.7447  -2498426.6201   1   7   0.0088   0.0081   0.0059  -0.0070   0.0051  -0.0052  -0.00    4.9
2196 298594.000   4077349.2189  -4216499.7430  -2498426.6161   1   7   0.0088   0.0081   0.0059  -0.0070   0.0051  -0.0052  -0.00    4.8
2196 298595.000   4077349.2139  -4216499.7433  -2498426.6165   1   7   0.0088   0.0081   0.0059  -0.0070   0.0051  -0.0052  -0.00    4.8
2196 298596.000   4077349.2249  -4216499.7522  -2498426.6174   1   7   0.0088   0.0081   0.0059  -0.0070   0.0051  -0.0052  -0.00    4.8
2196 298597.000   4077349.2253  -4216499.7538  -2498426.6185   1   7   0.0088   0.0081   0.0059  -0.0070   0.0051  -0.0052  -0.00    4.7
2196 298598.000   4077349.2221  -4216499.7509  -2498426.6169   1   7   0.0088   0.0081   0.0059  -0.0070   0.0051  -0.0052  -0.00    4.7
2196 298599.000   4077349.2258  -4216499.7556  -2498426.6177   1   7   0.0088   0.0081   0.0059  -0.0070   0.0051  -0.0052  -0.00    4.7
2196 298600.000   4077349.2241  -4216499.7515  -2498426.6174   1   7   0.0088   0.0081   0.0059  -0.0070   0.0051  -0.0052  -0.00    4.7
2196 298601.000   4077349.2242  -4216499.7493  -2498426.6195   1   7   0.0088   0.0081   0.0059  -0.0070   0.0051  -0.0052  -0.00    4.6
2196 298602.000   4077349.2216  -4216499.7451  -2498426.6247   1   7   0.0088   0.0081   0.0059  -0.0070   0.0051  -0.0052  -0.00    4.6
2196 298603.000   4077349.2216  -4216499.7482  -2498426.6214   1   7   0.0088   0.0081   0.0059  -0.0070   0.0051  -0.0052  -0.00    4.6
2196 298604.000   4077349.2195  -4216499.7443  -2498426.6204   1   7   0.0088   0.0081   0.0059  -0.0070   0.0051  -0.0052  -0.00    4.6
2196 298605.000   4077349.2209  -4216499.7481  -2498426.6208   1   7   0.0088   0.0081   0.0059  -0.0070   0.0051  -0.0052  -0.00    4.5
2196 298606.000   4077349.2171  -4216499.7440  -2498426.6194   1   7   0.0088   0.0081   0.0059  -0.0070   0.0051  -0.0052  -0.00    4.5
2196 298607.000   4077349.2267  -4216499.7488  -2498426.6246   1   7   0.0088   0.0081   0.0059  -0.0070   0.0051  -0.0052  -0.00    4.5
2196 298608.000   4077349.2198  -4216499.7453  -2498426.6192   1   7   0.0088   0.0081   0.0059  -0.0070   0.0051  -0.0052  -0.00    4.4
2196 298609.000   4077349.2186  -4216499.7456  -2498426.6197   1   7   0.0088   0.0081   0.0059  -0.0070   0.0051  -0.0052  -0.00    4.4
2196 298610.000   4077349.2231  -4216499.7468  -2498426.6207   1   7   0.0088   0.0081   0.0059  -0.0070   0.0051  -0.0052  -0.00    4.4
2196 298611.000   4077349.2197  -4216499.7510  -2498426.6193   1   7   0.0088   0.0081   0.0059  -0.0070   0.0051  -0.0052  -0.00    4.4
2196 298612.000   4077349.2196  -4216499.7495  -2498426.6172   1   7   0.0088   0.0081   0.0059  -0.0070   0.0051  -0.0052  -0.00    4.3
2196 298613.000   4077349.2224  -4216499.7512  -2498426.6191   1   7   0.0088   0.0081   0.0059  -0.0070   0.0051  -0.0052  -0.00    4.3
2196 298614.000   4077349.2149  -4216499.7466  -2498426.6189   1   7   0.0088   0.0081   0.0059  -0.0070   0.0051  -0.0052  -0.00    4.3
2196 298615.000   4077349.2262  -4216499.7508  -2498426.6208   1   7   0.0088   0.0081   0.0059  -0.0070   0.0051  -0.0052  -0.00    4.3
2196 298616.000   4077349.2275  -4216499.7560  -2498426.6222   1   7   0.0088   0.0081   0.0059  -0.0070   0.0051  -0.0052  -0.00    4.2
2196 298617.000   4077349.2254  -4216499.7523  -2498426.6211   1   7   0.0088   0.0081   0.0059  -0.0070   0.0051  -0.0052  -0.00    4.2
2196 298618.000   4077349.2199  -4216499.7511  -2498426.6194   1   7   0.0088   0.0081   0.0059  -0.0070   0.0051  -0.0052  -0.00    4.1
2196 298619.000   4077349.2236  -4216499.7513  -2498426.6219   1   7   0.0088   0.0081   0.0059  -0.0070   0.0051  -0.0052  -0.00    4.1
2196 298620.000   4077349.2226  -4216499.7493  -2498426.6190   1   7   0.0088   0.0081   0.0059  -0.0070   0.0051  -0.0052  -0.00    4.0
2196 298621.000   4077349.2234  -4216499.7529  -2498426.6226   1   7   0.0088   0.0081   0.0059  -0.0070   0.0051  -0.0052  -0.00    3.9
2196 298622.000   4077349.2190  -4216499.7470  -2498426.6183   1   7   0.0088   0.0081   0.0059  -0.0070   0.0051  -0.0052  -0.00    3.9
2196 298623.000   4077349.2206  -4216499.7472  -2498426.6224   1   7   0.0088   0.0081   0.0059  -0.0070   0.0051  -0.0052  -0.00    3.9
2196 298624.000   4077349.2188  -4216499.7457  -2498426.6209   1   7   0.0088   0.0081   0.0059  -0.0070   0.0051  -0.0052  -0.00    3.8
2196 298625.000   4077349.2149  -4216499.7415  -2498426.6190   1   7   0.0088   0.0081   0.0059  -0.0070   0.0051  -0.0052  -0.00    3.8
2196 298626.000   4077349.2185  -4216499.7458  -2498426.6177   1   7   0.0088   0.0081   0.0059  -0.0070   0.0051  -0.0052  -0.00    3.7
2196 298627.000   4077349.2135  -4216499.7431  -2498426.6176   1   7   0.0088   0.0081   0.0059  -0.0070   0.0051  -0.0052  -0.00    3.7
2196 298628.000   4077349.2149  -4216499.7433  -2498426.6192   1   7   0.0088   0.0081   0.0059  -0.0070   0.0051  -0.0052  -0.00    3.6
2196 298629.000   4077349.2172  -4216499.7417  -2498426.6203   1   7   0.0088   0.0081   0.0059  -0.0070   0.0051  -0.0052  -0.00    3.6
2196 298630.000   4077349.2137  -4216499.7420  -2498426.6212   1   7   0.0088   0.0081   0.0059  -0.0070   0.0051  -0.0052  -0.00    3.5
2196 298631.000   4077349.2196  -4216499.7458  -2498426.6187   1   7   0.0088   0.0081   0.0059  -0.0070   0.0051  -0.0052  -0.00    3.5
2196 298632.000   4077349.2192  -4216499.7418  -2498426.6208   1   7   0.0088   0.0081   0.0059  -0.0070   0.0051  -0.0052  -0.00    3.4
2196 298633.000   4077349.2218  -4216499.7456  -2498426.6200   1   7   0.0088   0.0081   0.0059  -0.0070   0.0051  -0.0052  -0.00    3.4
2196 298634.000   4077349.2187  -4216499.7456  -2498426.6201   1   7   0.0088   0.0081   0.0059  -0.0070   0.0051  -0.0052  -0.00   24.8
2196 298635.000   4077349.2236  -4216499.7445  -2498426.6201   1   7   0.0088   0.0081   0.0059  -0.0070   0.0051  -0.0052  -0.00   24.8
2196 298636.000   4077349.2172  -4216499.7406  -2498426.6202   1   6   0.0093   0.0090   0.0060  -0.0078   0.0054  -0.0054  -0.00   24.8
2196 298637.000   4077349.2180  -4216499.7415  -2498426.6195   1   6   0.0093   0.0090   0.0060  -0.0078   0.0054  -0.0054  -0.00   24.8
2196 298638.000   4077349.2091  -4216499.7362  -2498426.6182   1   7   0.0088   0.0081   0.0059  -0.0070   0.0051  -0.0052  -0.00   24.8
2196 298639.000   4077349.2125  -4216499.7387  -2498426.6151   1   7   0.0088   0.0081   0.0059  -0.0070   0.0051  -0.0052  -0.00   24.8
2196 298640.000   4077349.2159  -4216499.7406  -2498426.6171   1   7   0.0088   0.0081   0.0059  -0.0070   0.0051  -0.0052  -0.00   24.8
2196 298641.000   4077349.2168  -4216499.7409  -2498426.6193   1   7   0.0088   0.0081   0.0059  -0.0070   0.0051  -0.0052  -0.00   24.8
2196 298642.000   4077349.2182  -4216499.7459  -2498426.6191   1   7   0.0088   0.0081   0.0059  -0.0070   0.0051  -0.0052  -0.00   24.9
2196 298643.000   4077349.2171  -4216499.7459  -2498426.6190   1   7   0.0088   0.0081   0.0059  -0.0070   0.0051  -0.0052  -0.00   24.9
2196 298644.000   4077349.2207  -4216499.7444  -2498426.6209   1   7   0.0088   0.0081   0.0059  -0.0070   0.0051  -0.0052  -0.00   25.0
2196 298645.000   4077349.2186  -4216499.7452  -2498426.6205   1   7   0.0088   0.0081   0.0059  -0.0070   0.0051  -0.0052  -0.00   25.0
2196 298646.000   4077349.2201  -4216499.7426  -2498426.6189   1   7   0.0088   0.0081   0.0059  -0.0070   0.0051  -0.0052  -0.00   25.0
2196 298647.000   4077349.2220  -4216499.7466  -2498426.6207   1   7   0.0088   0.0081   0.0059  -0.0070   0.0051  -0.0052  -0.00   25.0
2196 298648.000   4077349.2174  -4216499.7432  -2498426.6194   1   7   0.0088   0.0081   0.0059  -0.0070   0.0051  -0.0052  -0.00   25.0
2196 298649.000   4077349.2161  -4216499.7424  -2498426.6177   1   7   0.0088   0.0081   0.0059  -0.0070   0.0051  -0.0052  -0.00   25.1
2196 298650.000   4077349.2184  -4216499.7441  -2498426.6175   1   7   0.0088   0.0081   0.0059  -0.0070   0.0051  -0.0052  -0.00   25.0
2196 298651.000   4077349.2141  -4216499.7406  -2498426.6181   1   7   0.0088   0.0081   0.0059  -0.0070   0.0051  -0.0052  -0.00   25.0
2196 298652.000   4077349.2174  -4216499.7426  -2498426.6186   1   7   0.0088   0.0081   0.0059  -0.0070   0.0051  -0.0052  -0.00   25.1
2196 298653.000   4077349.2160  -4216499.7434  -2498426.6193   1   7   0.0088   0.0081   0.0059  -0.0070   0.0051  -0.0052  -0.00   25.1
2196 298654.000   4077349.2150  -4216499.7413  -2498426.6189   1   7   0.0088   0.0081   0.0059  -0.0070   0.0051  -0.0052  -0.00   25.1
2196 298655.000   4077349.2133  -4216499.7376  -2498426.6187   1   7   0.0088   0.0081   0.0059  -0.0070   0.0051  -0.0052  -0.00   25.1
2196 298656.000   4077349.2218  -4216499.7464  -2498426.6190   1   7   0.0088   0.0081   0.0059  -0.0070   0.0051  -0.0052  -0.00   25.1
2196 298657.000   4077349.2204  -4216499.7456  -2498426.6204   1   7   0.0088   0.0081   0.0059  -0.0070   0.0051  -0.0052  -0.00   25.1
2196 298658.000   4077349.2187  -4216499.7440  -2498426.6206   1   7   0.0088   0.0081   0.0059  -0.0070   0.0051  -0.0052  -0.00   25.1
2196 298659.000   4077349.2183  -4216499.7455  -2498426.6227   1   7   0.0088   0.0081   0.0059  -0.0070   0.0051  -0.0052  -0.00   25.1
2196 298660.000   4077349.2184  -4216499.7430  -2498426.6188   1   7   0.0088   0.0081   0.0059  -0.0070   0.0051  -0.0052  -0.00   25.1
2196 298661.000   4077349.2198  -4216499.7431  -2498426.6172   1   7   0.0088   0.0081   0.0059  -0.0070   0.0051  -0.0052  -0.00   25.1
2196 298662.000   4077349.2178  -4216499.7467  -2498426.6191   1   7   0.0088   0.0081   0.0059  -0.0070   0.0051  -0.0052  -0.00   25.1
2196 298663.000   4077349.2233  -4216499.7484  -2498426.6189   1   7   0.0088   0.0081   0.0059  -0.0070   0.0051  -0.0052  -0.00   25.1
2196 298664.000   4077349.2173  -4216499.7403  -2498426.6152   1   7   0.0088   0.0081   0.0059  -0.0070   0.0051  -0.0052  -0.00   25.1
2196 298665.000   4077349.2175  -4216499.7421  -2498426.6173   1   7   0.0089   0.0081   0.0059  -0.0071   0.0051  -0.0052  -0.00   25.1
2196 298666.000   4077349.2173  -4216499.7431  -2498426.6177   1   7   0.0089   0.0081   0.0059  -0.0071   0.0051  -0.0052  -0.00   25.1
2196 298667.000   4077349.2141  -4216499.7414  -2498426.6176   1   7   0.0089   0.0081   0.0059  -0.0071   0.0051  -0.0052  -0.00   25.2
2196 298668.000   4077349.2183  -4216499.7419  -2498426.6160   1   7   0.0089   0.0081   0.0059  -0.0071   0.0051  -0.0052  -0.00   25.2
2196 298669.000   4077349.2161  -4216499.7413  -2498426.6169   1   7   0.0089   0.0081   0.0059  -0.0071   0.0051  -0.0052  -0.00   25.2
2196 298670.000   4077349.2167  -4216499.7431  -2498426.6199   1   7   0.0089   0.0081   0.0059  -0.0071   0.0051  -0.0052  -0.00   25.2
2196 298671.000   4077349.2120  -4216499.7364  -2498426.6177   1   7   0.0063   0.0057   0.0042  -0.0050   0.0036  -0.0037  -0.00    3.5
2196 298672.000   4077349.2125  -4216499.7350  -2498426.6195   1   7   0.0063   0.0057   0.0042  -0.0050   0.0036  -0.0037  -0.00    3.5
2196 298673.000   4077349.2164  -4216499.7358  -2498426.6177   1   7   0.0063   0.0057   0.0042  -0.0050   0.0036  -0.0037  -0.00    3.6
2196 298674.000   4077349.2097  -4216499.7317  -2498426.6145   1   7   0.0063   0.0057   0.0042  -0.0050   0.0036  -0.0037  -0.00    3.7
2196 298675.000   4077349.2127  -4216499.7342  -2498426.6182   1   7   0.0063   0.0057   0.0042  -0.0050   0.0036  -0.0037  -0.00    3.8
2196 298676.000   4077349.2115  -4216499.7364  -2498426.6183   1   7   0.0063   0.0057   0.0042  -0.0050   0.0036  -0.0037  -0.00    3.9
2196 298677.000   4077349.2146  -4216499.7357  -2498426.6197   1   7   0.0063   0.0057   0.0042  -0.0050   0.0036  -0.0037  -0.00    4.0
2196 298678.000   4077349.2186  -4216499.7417  -2498426.6214   1   7   0.0063   0.0057   0.0042  -0.0050   0.0036  -0.0037  -0.00    4.1
2196 298679.000   4077349.2176  -4216499.7371  -2498426.6177   1   7   0.0063   0.0057   0.0042  -0.0050   0.0036  -0.0037  -0.00    4.1
2196 298680.000   4077349.2103  -4216499.7342  -2498426.6159   1   7   0.0063   0.0057   0.0042  -0.0050   0.0036  -0.0037  -0.00    4.1
2196 298681.000   4077349.2130  -4216499.7370  -2498426.6162   1   7   0.0063   0.0057   0.0042  -0.0050   0.0036  -0.0037  -0.00    4.2
2196 298682.000   4077349.2088  -4216499.7304  -2498426.6120   1   7   0.0063   0.0057   0.0042  -0.0050   0.0036  -0.0037  -0.00    4.2
2196 298683.000   4077349.2082  -4216499.7316  -2498426.6151   1   7   0.0063   0.0057   0.0042  -0.0050   0.0036  -0.0037  -0.00    5.2
2196 298684.000   4077349.2062  -4216499.7295  -2498426.6128   1   7   0.0063   0.0057   0.0042  -0.0050   0.0036  -0.0037  -0.00    5.3
2196 298685.000   4077349.2104  -4216499.7348  -2498426.6147   1   7   0.0063   0.0057   0.0042  -0.0050   0.0036  -0.0037  -0.00    5.3
2196 298686.000   4077349.2110  -4216499.7332  -2498426.6164   1   7   0.0063   0.0057   0.0042  -0.0050   0.0036  -0.0037  -0.00    5.3
2196 298687.000   4077349.2116  -4216499.7338  -2498426.6177   1   7   0.0063   0.0057   0.0042  -0.0050   0.0036  -0.0037  -0.00    5.4
2196 298688.000   4077349.2090  -4216499.7312  -2498426.6170   1   7   0.0063   0.0057   0.0042  -0.0050   0.0036  -0.0037  -0.00    5.4
2196 298689.000   4077349.2153  -4216499.7350  -2498426.6183   1   7   0.0063   0.0057   0.0042  -0.0050   0.0036  -0.0037  -0.00    5.4
2196 298690.000   4077349.2082  -4216499.7335  -2498426.6176   1   7   0.0063   0.0057   0.0042  -0.0050   0.0036  -0.0037  -0.00    5.5
2196 298691.000   4077349.2107  -4216499.7395  -2498426.6178   1   7   0.0063   0.0058   0.0042  -0.0050   0.0036  -0.0037  -0.00    3.7
2196 298692.000   4077349.2022  -4216499.7328  -2498426.6158   1   7   0.0063   0.0058   0.0042  -0.0050   0.0036  -0.0037  -0.00    4.5
2196 298693.000   4077349.2046  -4216499.7332  -2498426.6143   1   7   0.0063   0.0058   0.0042  -0.0050   0.0036  -0.0037  -0.00    5.1
2196 298694.000   4077349.2121  -4216499.7413  -2498426.6177   1   7   0.0063   0.0058   0.0042  -0.0050   0.0036  -0.0037  -0.00    3.2
2196 298695.000   4077349.2146  -4216499.7412  -2498426.6176   1   7   0.0063   0.0058   0.0042  -0.0050   0.0036  -0.0037  -0.00    3.4
2196 298696.000   4077349.2129  -4216499.7390  -2498426.6178   1   7   0.0063   0.0058   0.0042  -0.0050   0.0036  -0.0037  -0.00    3.6
2196 298697.000   4077349.2184  -4216499.7438  -2498426.6193   1   7   0.0063   0.0058   0.0042  -0.0050   0.0036  -0.0037  -0.00    3.8
2196 298698.000   4077349.2135  -4216499.7427  -2498426.6168   1   7   0.0063   0.0058   0.0042  -0.0050   0.0036  -0.0037  -0.00    4.1
2196 298699.000   4077349.2131  -4216499.7403  -2498426.6187   1   7   0.0063   0.0058   0.0042  -0.0050   0.0036  -0.0037  -0.00    4.3
2196 298700.000   4077349.2177  -4216499.7469  -2498426.6215   1   7   0.0063   0.0058   0.0042  -0.0050   0.0036  -0.0037  -0.00    4.5
2196 298701.000   4077349.2110  -4216499.7422  -2498426.6203   1   7   0.0063   0.0058   0.0042  -0.0051   0.0036  -0.0037  -0.00    4.7
2196 298702.000   4077349.2196  -4216499.7457  -2498426.6235   1   7   0.0063   0.0059   0.0042  -0.0051   0.0037  -0.0037  -0.00    4.9
2196 298703.000   4077349.2151  -4216499.7404  -2498426.6214   1   7   0.0064   0.0060   0.0042  -0.0052   0.0037  -0.0038  -0.00    5.2
2196 298704.000   4077349.2147  -4216499.7373  -2498426.6195   1   6   0.0066   0.0063   0.0042  -0.0055   0.0038  -0.0038  -0.00    4.9
2196 298705.000   4077349.2172  -4216499.7383  -2498426.6187   1   6   0.0066   0.0063   0.0042  -0.0055   0.0038  -0.0038  -0.00    5.1
2196 298706.000   4077349.2211  -4216499.7471  -2498426.6168   1   7   0.0064   0.0060   0.0042  -0.0052   0.0037  -0.0038  -0.00    5.3
2196 298707.000   4077349.2164  -4216499.7444  -2498426.6185   1   6   0.0066   0.0063   0.0042  -0.0055   0.0038  -0.0038  -0.00    5.5
2196 298708.000   4077349.2174  -4216499.7430  -2498426.6174   1   6   0.0066   0.0063   0.0042  -0.0055   0.0038  -0.0038  -0.00    5.7
2196 298709.000   4077349.2164  -4216499.7434  -2498426.6179   1   7   0.0063   0.0059   0.0042  -0.0051   0.0037  -0.0037  -0.00    6.0
2196 298710.000   4077349.2150  -4216499.7427  -2498426.6175   1   7   0.0063   0.0058   0.0042  -0.0051   0.0036  -0.0037  -0.00    6.2
2196 298711.000   4077349.2185  -4216499.7466  -2498426.6148   1   7   0.0063   0.0058   0.0042  -0.0050   0.0036  -0.0037  -0.00    6.2
2196 298712.000   4077349.2183  -4216499.7426  -2498426.6180   1   7   0.0063   0.0058   0.0042  -0.0050   0.0036  -0.0037  -0.00    6.2
2196 298713.000   4077349.2206  -4216499.7423  -2498426.6176   1   7   0.0063   0.0058   0.0042  -0.0050   0.0036  -0.0037  -0.00    6.3
2196 298714.000   4077349.2208  -4216499.7449  -2498426.6170   1   7   0.0063   0.0058   0.0042  -0.0050   0.0036  -0.0037  -0.00    6.3
2196 298715.000   4077349.2151  -4216499.7427  -2498426.6157   1   7   0.0063   0.0058   0.0042  -0.0050   0.0036  -0.0037  -0.00    6.3
2196 298716.000   4077349.2194  -4216499.7469  -2498426.6188   1   7   0.0063   0.0058   0.0042  -0.0050   0.0036  -0.0037  -0.00    6.3
2196 298717.000   4077349.2168  -4216499.7443  -2498426.6182   1   7   0.0063   0.0058   0.0042  -0.0050   0.0036  -0.0037  -0.00    6.3
2196 298718.000   4077349.2152  -4216499.7461  -2498426.6182   1   7   0.0063   0.0058   0.0042  -0.0050   0.0036  -0.0037  -0.00    6.3
2196 298719.000   4077349.2156  -4216499.7455  -2498426.6186   1   7   0.0063   0.0057   0.0042  -0.0050   0.0036  -0.0037  -0.00    6.4
2196 298720.000   4077349.2189  -4216499.7474  -2498426.6223   1   7   0.0063   0.0057   0.0042  -0.0050   0.0036  -0.0037  -0.00    6.4
2196 298721.000   4077349.2158  -4216499.7471  -2498426.6161   1   7   0.0063   0.0057   0.0042  -0.0050   0.0036  -0.0037  -0.00    6.4
2196 298722.000   4077349.2219  -4216499.7527  -2498426.6213   1   7   0.0063   0.0057   0.0042  -0.0050   0.0036  -0.0037  -0.00    6.4
2196 298723.000   4077349.2200  -4216499.7445  -2498426.6186   1   7   0.0063   0.0057   0.0042  -0.0050   0.0036  -0.0037  -0.00    6.4
2196 298724.000   4077349.2161  -4216499.7465  -2498426.6164   1   7   0.0063   0.0057   0.0042  -0.0050   0.0036  -0.0037  -0.00    6.4
2196 298725.000   4077349.2148  -4216499.7403  -2498426.6171   1   7   0.0063   0.0057   0.0042  -0.0050   0.0036  -0.0037  -0.00    6.4
2196 298726.000   4077349.2208  -4216499.7475  -2498426.6194   1   7   0.0063   0.0057   0.0042  -0.0050   0.0036  -0.0037  -0.00    6.5
2196 298727.000   4077349.2169  -4216499.7464  -2498426.6187   1   7   0.0063   0.0057   0.0042  -0.0050   0.0036  -0.0037  -0.00    6.5
2196 298728.000   4077349.2158  -4216499.7468  -2498426.6171   1   7   0.0063   0.0057   0.0042  -0.0050   0.0036  -0.0037  -0.00    6.5
2196 298729.000   4077349.2143  -4216499.7414  -2498426.6153   1   7   0.0063   0.0057   0.0042  -0.0050   0.0036  -0.0037  -0.00    6.5
2196 298730.000   4077349.2132  -4216499.7408  -2498426.6167   1   7   0.0063   0.0057   0.0042  -0.0050   0.0036  -0.0037  -0.00    6.5
2196 298731.000   4077349.2133  -4216499.7427  -2498426.6161   1   7   0.0063   0.0057   0.0042  -0.0050   0.0036  -0.0037  -0.00    6.6
2196 298732.000   4077349.2144  -4216499.7415  -2498426.6145   1   7   0.0063   0.0057   0.0042  -0.0050   0.0036  -0.0037  -0.00    6.6
2196 298733.000   4077349.2165  -4216499.7445  -2498426.6202   1   7   0.0063   0.0057   0.0042  -0.0050   0.0036  -0.0037  -0.00    6.6
2196 298733.999   4077349.2178  -4216499.7437  -2498426.6197   1   7   0.0063   0.0057   0.0042  -0.0050   0.0036  -0.0037  -0.00    6.7
2196 298735.000   4077349.2147  -4216499.7419  -2498426.6174   1   7   0.0063   0.0057   0.0042  -0.0050   0.0036  -0.0037  -0.00    6.7
2196 298736.000   4077349.2113  -4216499.7403  -2498426.6162   1   7   0.0063   0.0057   0.0042  -0.0050   0.0036  -0.0037  -0.00    6.7
2196 298737.000   4077349.2129  -4216499.7398  -2498426.6160   1   7   0.0063   0.0057   0.0042  -0.0050   0.0036  -0.0037  -0.00    6.8
2196 298738.000   4077349.2084  -4216499.7377  -2498426.6128   1   7   0.0063   0.0057   0.0042  -0.0050   0.0036  -0.0037  -0.00    6.8
2196 298739.000   4077349.2134  -4216499.7404  -2498426.6159   1   7   0.0063   0.0057   0.0042  -0.0050   0.0036  -0.0037  -0.00    6.8
2196 298740.000   4077349.2141  -4216499.7416  -2498426.6179   1   7   0.0063   0.0057   0.0042  -0.0050   0.0036  -0.0037  -0.00    6.8
2196 298741.000   4077349.2126  -4216499.7408  -2498426.6156   1   7   0.0063   0.0057   0.0042  -0.0050   0.0036  -0.0037  -0.00    6.9
2196 298742.000   4077349.2175  -4216499.7421  -2498426.6206   1   7   0.0063   0.0057   0.0042  -0.0050   0.0036  -0.0037  -0.00    6.9
2196 298743.000   4077349.2217  -4216499.7444  -2498426.6190   1   7   0.0063   0.0057   0.0042  -0.0050   0.0036  -0.0037  -0.00    6.9
2196 298744.000   4077349.2193  -4216499.7450  -2498426.6215   1   7   0.0063   0.0057   0.0042  -0.0050   0.0036  -0.0037  -0.00    6.9
2196 298745.000   4077349.2181  -4216499.7431  -2498426.6213   1   7   0.0063   0.0057   0.0042  -0.0050   0.0036  -0.0037  -0.00    6.9
2196 298746.000   4077349.2149  -4216499.7400  -2498426.6168   1   7   0.0063   0.0057   0.0042  -0.0050   0.0036  -0.0037  -0.00    7.0
2196 298747.000   4077349.2145  -4216499.7421  -2498426.6200   1   7   0.0063   0.0057   0.0042  -0.0050   0.0036  -0.0037  -0.00    7.0
2196 298748.000   4077349.2125  -4216499.7412  -2498426.6174   1   7   0.0063   0.0057   0.0042  -0.0050   0.0036  -0.0037  -0.00    7.0
2196 298749.000   4077349.2145  -4216499.7413  -2498426.6164   1   7   0.0063   0.0057   0.0042  -0.0050   0.0036  -0.0037  -0.00    7.0
2196 298750.000   4077349.2105  -4216499.7400  -2498426.6177   1   7   0.0063   0.0057   0.0042  -0.0050   0.0036  -0.0037  -0.00    7.1
2196 298751.000   4077349.2120  -4216499.7428  -2498426.6140   1   7   0.0063   0.0057   0.0042  -0.0050   0.0036  -0.0037  -0.00    7.1
2196 298752.000   4077349.2148  -4216499.7422  -2498426.6182   1   7   0.0063   0.0057   0.0042  -0.0050   0.0036  -0.0037  -0.00    7.1
2196 298753.000   4077349.2204  -4216499.7447  -2498426.6201   1   7   0.0063   0.0057   0.0042  -0.0050   0.0036  -0.0037  -0.00    7.1
2196 298754.000   4077349.2175  -4216499.7445  -2498426.6179   1   7   0.0063   0.0057   0.0042  -0.0050   0.0036  -0.0037  -0.00    7.2
2196 298755.000   4077349.2158  -4216499.7444  -2498426.6197   1   7   0.0063   0.0057   0.0042  -0.0050   0.0036  -0.0037  -0.00    7.2
2196 298756.000   4077349.2193  -4216499.7455  -2498426.6202   1   7   0.0063   0.0057   0.0042  -0.0050   0.0036  -0.0037  -0.00    7.2
2196 298757.000   4077349.2147  -4216499.7423  -2498426.6189   1   7   0.0063   0.0057   0.0042  -0.0050   0.0036  -0.0037  -0.00    7.2
2196 298758.000   4077349.2204  -4216499.7449  -2498426.6209   1   7   0.0063   0.0057   0.0042  -0.0050   0.0036  -0.0037  -0.00    7.3
2196 298759.000   4077349.2174  -4216499.7458  -2498426.6229   1   7   0.0063   0.0057   0.0042  -0.0050   0.0036  -0.0037  -0.00    7.3
2196 298760.000   4077349.2209  -4216499.7437  -2498426.6160   1   7   0.0063   0.0057   0.0042  -0.0050   0.0036  -0.0037  -0.00    7.3
2196 298761.000   4077349.2136  -4216499.7426  -2498426.6178   1   7   0.0063   0.0057   0.0042  -0.0050   0.0036  -0.0037  -0.00    7.4
2196 298762.000   4077349.2133  -4216499.7436  -2498426.6183   1   7   0.0063   0.0057   0.0042  -0.0050   0.0036  -0.0037  -0.00    3.3
2196 298763.000   4077349.2149  -4216499.7451  -2498426.6197   1   7   0.0063   0.0057   0.0042  -0.0050   0.0036  -0.0037  -0.00    3.3
2196 298764.000   4077349.2166  -4216499.7431  -2498426.6174   1   7   0.0063   0.0057   0.0042  -0.0050   0.0036  -0.0037  -0.00    3.4
2196 298765.000   4077349.2167  -4216499.7407  -2498426.6178   1   8   0.0059   0.0056   0.0041  -0.0048   0.0035  -0.0035  -0.00    3.4
2196 298766.000   4077349.2151  -4216499.7429  -2498426.6178   1   8   0.0058   0.0056   0.0041  -0.0047   0.0035  -0.0035  -0.00    3.5
2196 298767.000   4077349.2223  -4216499.7434  -2498426.6202   1   8   0.0057   0.0056   0.0041  -0.0047   0.0035  -0.0034  -0.00    3.5
2196 298768.000   4077349.2186  -4216499.7435  -2498426.6228   1   8   0.0057   0.0056   0.0041  -0.0047   0.0035  -0.0034  -0.00    3.6
2196 298769.000   4077349.2187  -4216499.7450  -2498426.6197   1   8   0.0057   0.0056   0.0041  -0.0047   0.0035  -0.0034  -0.00    3.6
2196 298770.000   4077349.2202  -4216499.7425  -2498426.6188   1   8   0.0056   0.0056   0.0041  -0.0047   0.0035  -0.0034  -0.00    3.6
2196 298771.000   4077349.2230  -4216499.7460  -2498426.6207   1   8   0.0056   0.0056   0.0041  -0.0046   0.0035  -0.0034  -0.00    3.7
2196 298772.000   4077349.2194  -4216499.7424  -2498426.6178   1   8   0.0056   0.0056   0.0041  -0.0046   0.0035  -0.0034  -0.00    3.7
2196 298773.000   4077349.2158  -4216499.7421  -2498426.6189   1   8   0.0056   0.0056   0.0041  -0.0046   0.0035  -0.0034  -0.00    3.8
2196 298774.000   4077349.2191  -4216499.7407  -2498426.6182   1   8   0.0056   0.0056   0.0041  -0.0046   0.0035  -0.0034  -0.00    3.8
2196 298775.000   4077349.2165  -4216499.7406  -2498426.6164   1   8   0.0056   0.0056   0.0041  -0.0046   0.0035  -0.0034  -0.00    3.9
2196 298776.000   4077349.2183  -4216499.7425  -2498426.6194   1   8   0.0056   0.0056   0.0041  -0.0046   0.0035  -0.0034  -0.00    3.9
2196 298777.000   4077349.2163  -4216499.7407  -2498426.6192   1   8   0.0056   0.0056   0.0041  -0.0046   0.0035  -0.0034  -0.00    3.9
2196 298778.000   4077349.2203  -4216499.7461  -2498426.6219   1   8   0.0056   0.0056   0.0041  -0.0046   0.0035  -0.0034  -0.00    4.0
2196 298779.000   4077349.2161  -4216499.7428  -2498426.6189   1   8   0.0056   0.0056   0.0041  -0.0046   0.0035  -0.0034  -0.00    4.0
2196 298780.000   4077349.2221  -4216499.7449  -2498426.6209   1   8   0.0056   0.0056   0.0041  -0.0046   0.0035  -0.0034  -0.00    4.1
2196 298781.000   4077349.2177  -4216499.7438  -2498426.6218   1   8   0.0056   0.0056   0.0041  -0.0046   0.0035  -0.0034  -0.00    4.1
2196 298782.000   4077349.2235  -4216499.7458  -2498426.6235   1   8   0.0056   0.0056   0.0041  -0.0046   0.0035  -0.0034  -0.00    4.1
2196 298783.000   4077349.2192  -4216499.7416  -2498426.6183   1   8   0.0056   0.0056   0.0041  -0.0046   0.0035  -0.0034  -0.00    4.2
2196 298784.000   4077349.2202  -4216499.7420  -2498426.6191   1   8   0.0056   0.0056   0.0041  -0.0046   0.0035  -0.0034  -0.00    4.2
2196 298785.000   4077349.2207  -4216499.7443  -2498426.6200   1   8   0.0056   0.0056   0.0041  -0.0046   0.0035  -0.0034  -0.00    4.3
2196 298786.000   4077349.2192  -4216499.7428  -2498426.6204   1   8   0.0056   0.0056   0.0041  -0.0046   0.0035  -0.0034  -0.00    4.3
2196 298787.000   4077349.2211  -4216499.7435  -2498426.6197   1   8   0.0056   0.0056   0.0041  -0.0046   0.0035  -0.0034  -0.00    4.3
2196 298788.000   4077349.2174  -4216499.7446  -2498426.6257   1   8   0.0056   0.0056   0.0041  -0.0046   0.0035  -0.0034  -0.00    4.4
2196 298789.000   4077349.2167  -4216499.7430  -2498426.6194   1   8   0.0056   0.0056   0.0041  -0.0046   0.0035  -0.0034  -0.00    4.4
2196 298790.000   4077349.2238  -4216499.7490  -2498426.6200   1   8   0.0056   0.0056   0.0041  -0.0046   0.0035  -0.0034  -0.00    4.5
2196 298791.000   4077349.2162  -4216499.7417  -2498426.6190   1   8   0.0056   0.0056   0.0041  -0.0046   0.0035  -0.0034  -0.00    4.5
2196 298792.000   4077349.2190  -4216499.7414  -2498426.6167   1   8   0.0056   0.0056   0.0041  -0.0046   0.0035  -0.0034  -0.00    4.5
2196 298793.000   4077349.2157  -4216499.7401  -2498426.6165   1   8   0.0056   0.0056   0.0041  -0.0046   0.0035  -0.0034  -0.00    4.6
2196 298794.000   4077349.2162  -4216499.7406  -2498426.6161   1   8   0.0056   0.0056   0.0041  -0.0046   0.0035  -0.0034  -0.00    4.6
2196 298795.000   4077349.2164  -4216499.7397  -2498426.6161   1   8   0.0056   0.0056   0.0041  -0.0046   0.0035  -0.0034  -0.00    4.6
2196 298796.000   4077349.2157  -4216499.7396  -2498426.6161   1   8   0.0056   0.0056   0.0041  -0.0046   0.0035  -0.0034  -0.00    4.7
2196 298797.000   4077349.2189  -4216499.7416  -2498426.6217   1   8   0.0056   0.0056   0.0041  -0.0046   0.0035  -0.0034  -0.00    4.7
2196 298798.000   4077349.2189  -4216499.7405  -2498426.6182   1   8   0.0056   0.0056   0.0041  -0.0046   0.0035  -0.0034  -0.00    4.8
2196 298799.000   4077349.2191  -4216499.7394  -2498426.6183   1   8   0.0056   0.0056   0.0041  -0.0046   0.0035  -0.0034  -0.00    4.8
2196 298800.000   4077349.2189  -4216499.7393  -2498426.6160   1   8   0.0056   0.0056   0.0041  -0.0046   0.0035  -0.0034  -0.00    4.8
2196 298801.000   4077349.2203  -4216499.7433  -2498426.6190   1   8   0.0056   0.0056   0.0041  -0.0046   0.0035  -0.0034  -0.00    4.9
2196 298802.000   4077349.2237  -4216499.7418  -2498426.6200   1   8   0.0056   0.0056   0.0041  -0.0046   0.0035  -0.0034  -0.00    4.9
2196 298803.000   4077349.2161  -4216499.7403  -2498426.6169   1   8   0.0056   0.0056   0.0041  -0.0046   0.0035  -0.0034  -0.00    4.9
2196 298804.000   4077349.2191  -4216499.7431  -2498426.6182   1   8   0.0056   0.0056   0.0041  -0.0046   0.0035  -0.0034  -0.00    5.0
2196 298805.000   4077349.2175  -4216499.7405  -2498426.6196   1   8   0.0056   0.0056   0.0041  -0.0046   0.0035  -0.0034  -0.00    5.0
2196 298806.000   4077349.2194  -4216499.7410  -2498426.6169   1   8   0.0056   0.0056   0.0041  -0.0046   0.0035  -0.0034  -0.00    5.0
2196 298807.000   4077349.2171  -4216499.7409  -2498426.6154   1   8   0.0056   0.0056   0.0041  -0.0046   0.0035  -0.0034  -0.00    5.1
2196 298808.000   4077349.2204  -4216499.7446  -2498426.6174   1   8   0.0056   0.0056   0.0041  -0.0046   0.0035  -0.0034  -0.00    5.1
2196 298809.000   4077349.2174  -4216499.7408  -2498426.6154   1   8   0.0056   0.0056   0.0041  -0.0046   0.0035  -0.0034  -0.00    5.1
2196 298810.000   4077349.2155  -4216499.7379  -2498426.6188   1   8   0.0056   0.0056   0.0041  -0.0046   0.0035  -0.0034  -0.00    5.2
2196 298811.000   4077349.2191  -4216499.7421  -2498426.6180   1   8   0.0056   0.0056   0.0041  -0.0046   0.0035  -0.0034  -0.00    5.2
2196 298812.000   4077349.2190  -4216499.7406  -2498426.6132   1   8   0.0056   0.0056   0.0041  -0.0046   0.0035  -0.0034  -0.00    5.2
2196 298813.000   4077349.2156  -4216499.7377  -2498426.6167   1   8   0.0056   0.0056   0.0041  -0.0046   0.0035  -0.0034  -0.00    3.0
2196 298814.000   4077349.2165  -4216499.7372  -2498426.6139   1   8   0.0056   0.0056   0.0041  -0.0046   0.0035  -0.0034  -0.00    3.1
2196 298815.000   4077349.2226  -4216499.7443  -2498426.6175   1   8   0.0056   0.0056   0.0041  -0.0046   0.0035  -0.0034  -0.00    3.1
2196 298816.000   4077349.2235  -4216499.7466  -2498426.6187   1   8   0.0056   0.0056   0.0041  -0.0046   0.0035  -0.0034  -0.00    3.2
2196 298817.000   4077349.2239  -4216499.7466  -2498426.6195   1   8   0.0056   0.0056   0.0041  -0.0046   0.0035  -0.0034  -0.00    3.2
2196 298818.000   4077349.2218  -4216499.7423  -2498426.6146   1   8   0.0056   0.0056   0.0041  -0.0046   0.0035  -0.0034  -0.00    3.3
2196 298819.000   4077349.2234  -4216499.7454  -2498426.6175   1   8   0.0056   0.0056   0.0041  -0.0046   0.0035  -0.0034  -0.00    3.3
2196 298820.000   4077349.2237  -4216499.7468  -2498426.6162   1   8   0.0056   0.0056   0.0041  -0.0046   0.0035  -0.0034  -0.00    3.3
2196 298821.000   4077349.2197  -4216499.7404  -2498426.6188   1   8   0.0056   0.0056   0.0041  -0.0046   0.0035  -0.0034  -0.00    3.4
2196 298822.000   4077349.2215  -4216499.7398  -2498426.6147   1   8   0.0056   0.0056   0.0041  -0.0046   0.0035  -0.0034  -0.00    3.4
2196 298823.000   4077349.2190  -4216499.7373  -2498426.6156   1   8   0.0056   0.0056   0.0041  -0.0046   0.0035  -0.0034  -0.00    3.5
2196 298824.000   4077349.2194  -4216499.7405  -2498426.6166   1   8   0.0056   0.0056   0.0041  -0.0046   0.0035  -0.0034  -0.00    3.5
2196 298825.000   4077349.2191  -4216499.7408  -2498426.6139   1   8   0.0056   0.0056   0.0041  -0.0046   0.0035  -0.0034  -0.00    3.5
2196 298826.000   4077349.2186  -4216499.7391  -2498426.6152   1   8   0.0056   0.0056   0.0041  -0.0046   0.0035  -0.0034  -0.00    3.6
2196 298827.000   4077349.2201  -4216499.7386  -2498426.6156   1   8   0.0056   0.0056   0.0041  -0.0046   0.0035  -0.0034  -0.00    3.6
2196 298828.000   4077349.2182  -4216499.7375  -2498426.6138   1   8   0.0056   0.0056   0.0041  -0.0046   0.0035  -0.0034  -0.00    3.7
2196 298829.000   4077349.2152  -4216499.7357  -2498426.6151   1   8   0.0056   0.0056   0.0041  -0.0046   0.0035  -0.0034  -0.00    3.7
2196 298830.000   4077349.2177  -4216499.7405  -2498426.6150   1   8   0.0056   0.0056   0.0041  -0.0046   0.0035  -0.0034  -0.00    3.7
2196 298831.000   4077349.2191  -4216499.7405  -2498426.6164   1   8   0.0056   0.0056   0.0041  -0.0046   0.0035  -0.0034  -0.00    3.8
2196 298832.000   4077349.2182  -4216499.7371  -2498426.6133   1   8   0.0056   0.0056   0.0041  -0.0046   0.0035  -0.0034  -0.00    3.8
2196 298833.000   4077349.2203  -4216499.7412  -2498426.6166   1   8   0.0056   0.0056   0.0041  -0.0046   0.0035  -0.0034  -0.00    3.9
2196 298834.000   4077349.2223  -4216499.7420  -2498426.6163   1   8   0.0056   0.0056   0.0041  -0.0046   0.0035  -0.0034  -0.00    3.9
2196 298835.000   4077349.2178  -4216499.7395  -2498426.6143   1   8   0.0056   0.0056   0.0041  -0.0046   0.0035  -0.0034  -0.00    3.9
2196 298836.000   4077349.2211  -4216499.7391  -2498426.6138   1   8   0.0056   0.0056   0.0041  -0.0046   0.0035  -0.0034  -0.00    4.0
2196 298837.000   4077349.2188  -4216499.7406  -2498426.6178   1   8   0.0056   0.0056   0.0041  -0.0046   0.0035  -0.0034  -0.00    4.0
2196 298838.000   4077349.2227  -4216499.7404  -2498426.6165   1   8   0.0056   0.0056   0.0041  -0.0046   0.0035  -0.0034  -0.00    4.0
2196 298839.000   4077349.2202  -4216499.7428  -2498426.6169   1   8   0.0056   0.0056   0.0041  -0.0046   0.0035  -0.0034  -0.00    4.1
2196 298840.000   4077349.2229  -4216499.7391  -2498426.6177   1   8   0.0056   0.0056   0.0041  -0.0046   0.0035  -0.0034  -0.00    4.1
2196 298841.000   4077349.2179  -4216499.7391  -2498426.6144   1   8   0.0056   0.0056   0.0041  -0.0046   0.0035  -0.0034  -0.00    4.2
2196 298842.000   4077349.2184  -4216499.7389  -2498426.6192   1   8   0.0056   0.0056   0.0041  -0.0046   0.0035  -0.0034  -0.00    4.2
2196 298843.000   4077349.2175  -4216499.7377  -2498426.6121   1   8   0.0056   0.0056   0.0041  -0.0046   0.0035  -0.0034  -0.00    4.2
2196 298844.000   4077349.2143  -4216499.7339  -2498426.6117   1   8   0.0056   0.0056   0.0041  -0.0046   0.0035  -0.0034  -0.00    4.2
2196 298845.000   4077349.2149  -4216499.7351  -2498426.6116   1   8   0.0056   0.0056   0.0041  -0.0046   0.0035  -0.0034  -0.00    4.3
2196 298846.000   4077349.2195  -4216499.7377  -2498426.6139   1   8   0.0056   0.0056   0.0041  -0.0046   0.0035  -0.0034  -0.00    4.3
2196 298847.000   4077349.2170  -4216499.7404  -2498426.6160   1   8   0.0056   0.0056   0.0041  -0.0046   0.0035  -0.0034  -0.00    4.3
2196 298848.000   4077349.2166  -4216499.7378  -2498426.6143   1   8   0.0056   0.0056   0.0040  -0.0046   0.0035  -0.0034  -0.00    4.4
2196 298849.000   4077349.2205  -4216499.7387  -2498426.6183   1   8   0.0056   0.0056   0.0040  -0.0046   0.0035  -0.0034  -0.00    4.4
2196 298850.000   4077349.2229  -4216499.7413  -2498426.6162   1   8   0.0056   0.0056   0.0040  -0.0046   0.0035  -0.0034  -0.00    4.4
2196 298851.000   4077349.2205  -4216499.7366  -2498426.6147   1   8   0.0056   0.0056   0.0040  -0.0046   0.0035  -0.0034  -0.00    4.5
2196 298852.000   4077349.2214  -4216499.7379  -2498426.6152   1   8   0.0056   0.0056   0.0040  -0.0046   0.0035  -0.0034  -0.00    4.5
2196 298853.000   4077349.2204  -4216499.7393  -2498426.6135   1   8   0.0056   0.0056   0.0040  -0.0046   0.0035  -0.0034  -0.00    4.5
2196 298854.000   4077349.2221  -4216499.7384  -2498426.6147   1   8   0.0056   0.0056   0.0040  -0.0046   0.0035  -0.0034  -0.00    4.6
2196 298855.000   4077349.2219  -4216499.7405  -2498426.6154   1   8   0.0056   0.0056   0.0040  -0.0046   0.0035  -0.0034  -0.00    4.6
2196 298856.000   4077349.2192  -4216499.7358  -2498426.6120   1   8   0.0056   0.0056   0.0040  -0.0046   0.0035  -0.0034  -0.00    4.7
2196 298857.000   4077349.2198  -4216499.7365  -2498426.6155   1   8   0.0056   0.0056   0.0040  -0.0046   0.0035  -0.0034  -0.00    4.7
2196 298858.000   4077349.2219  -4216499.7372  -2498426.6140   1   8   0.0056   0.0056   0.0040  -0.0046   0.0035  -0.0034  -0.00    4.7
2196 298859.000   4077349.2213  -4216499.7370  -2498426.6145   1   8   0.0056   0.0056   0.0040  -0.0046   0.0035  -0.0034  -0.00    4.8
2196 298860.000   4077349.2170  -4216499.7354  -2498426.6121   1   8   0.0056   0.0056   0.0040  -0.0046   0.0035  -0.0034  -0.00    4.8
2196 298861.000   4077349.2223  -4216499.7394  -2498426.6136   1   8   0.0056   0.0056   0.0040  -0.0046   0.0035  -0.0034  -0.00    4.8
2196 298862.000   4077349.2189  -4216499.7370  -2498426.6152   1   8   0.0056   0.0056   0.0040  -0.0046   0.0035  -0.0034  -0.00    4.9
2196 298863.000   4077349.2192  -4216499.7345  -2498426.6123   1   8   0.0056   0.0056   0.0040  -0.0046   0.0035  -0.0034  -0.00    4.9
2196 298864.000   4077349.2194  -4216499.7373  -2498426.6172   1   8   0.0056   0.0056   0.0040  -0.0046   0.0035  -0.0034  -0.00    4.9
2196 298865.000   4077349.2164  -4216499.7320  -2498426.6123   1   8   0.0056   0.0056   0.0040  -0.0046   0.0035  -0.0034  -0.00    5.0
2196 298866.000   4077349.2198  -4216499.7356  -2498426.6164   1   8   0.0056   0.0056   0.0040  -0.0046   0.0035  -0.0034  -0.00    5.0
2196 298867.000   4077349.2181  -4216499.7364  -2498426.6153   1   8   0.0056   0.0056   0.0040  -0.0046   0.0035  -0.0034  -0.00    5.0
2196 298868.000   4077349.2172  -4216499.7328  -2498426.6135   1   8   0.0056   0.0056   0.0040  -0.0046   0.0035  -0.0034  -0.00    5.1
2196 298869.000   4077349.2131  -4216499.7330  -2498426.6099   1   8   0.0056   0.0056   0.0040  -0.0046   0.0035  -0.0034  -0.00    5.1
2196 298870.000   4077349.2141  -4216499.7285  -2498426.6124   1   8   0.0056   0.0056   0.0040  -0.0046   0.0035  -0.0034  -0.00    5.1
2196 298871.000   4077349.2148  -4216499.7298  -2498426.6105   1   8   0.0056   0.0056   0.0040  -0.0046   0.0035  -0.0034  -0.00    5.2
2196 298872.000   4077349.2178  -4216499.7413  -2498426.6138   1   8   0.0056   0.0056   0.0040  -0.0046   0.0035  -0.0034  -0.00    5.2
2196 298873.000   4077349.2261  -4216499.7470  -2498426.6131   1   8   0.0056   0.0056   0.0040  -0.0046   0.0035  -0.0034  -0.00    5.2
2196 298874.000   4077349.2275  -4216499.7470  -2498426.6132   1   8   0.0056   0.0056   0.0040  -0.0046   0.0035  -0.0034  -0.00    5.3
2196 298875.000   4077349.2188  -4216499.7359  -2498426.6118   1   7   0.0058   0.0061   0.0041  -0.0050   0.0036  -0.0035  -0.00    5.3
2196 298876.000   4077349.2296  -4216499.7460  -2498426.6148   1   8   0.0056   0.0056   0.0040  -0.0046   0.0035  -0.0034  -0.00    5.4
2196 298877.000   4077349.2279  -4216499.7488  -2498426.6127   1   8   0.0056   0.0056   0.0040  -0.0046   0.0035  -0.0034  -0.00    5.4
2196 298878.000   4077349.2261  -4216499.7443  -2498426.6162   1   8   0.0056   0.0056   0.0040  -0.0046   0.0035  -0.0034  -0.00    5.5
2196 298879.000   4077349.2283  -4216499.7488  -2498426.6165   1   8   0.0056   0.0056   0.0040  -0.0046   0.0035  -0.0034  -0.00    5.5
2196 298880.000   4077349.2250  -4216499.7415  -2498426.6135   1   8   0.0056   0.0056   0.0040  -0.0046   0.0035  -0.0034  -0.00    5.5
2196 298881.000   4077349.2257  -4216499.7430  -2498426.6119   1   8   0.0056   0.0056   0.0040  -0.0046   0.0035  -0.0034  -0.00    5.6
2196 298882.000   4077349.2267  -4216499.7435  -2498426.6152   1   8   0.0056   0.0056   0.0040  -0.0046   0.0035  -0.0034  -0.00    5.6
2196 298883.000   4077349.2298  -4216499.7470  -2498426.6125   1   8   0.0056   0.0056   0.0040  -0.0046   0.0035  -0.0034  -0.00    5.6
2196 298884.000   4077349.2288  -4216499.7481  -2498426.6132   1   8   0.0056   0.0056   0.0040  -0.0046   0.0035  -0.0034  -0.00    5.7
2196 298885.000   4077349.2255  -4216499.7425  -2498426.6149   1   8   0.0056   0.0056   0.0040  -0.0046   0.0035  -0.0034  -0.00    5.7
2196 298886.000   4077349.2249  -4216499.7436  -2498426.6138   1   8   0.0056   0.0056   0.0040  -0.0046   0.0035  -0.0034  -0.00    5.8
2196 298887.000   4077349.2234  -4216499.7450  -2498426.6168   1   8   0.0056   0.0056   0.0040  -0.0046   0.0035  -0.0034  -0.00    5.8
2196 298888.000   4077349.2235  -4216499.7406  -2498426.6102   1   8   0.0056   0.0056   0.0040  -0.0046   0.0035  -0.0034  -0.00    5.8
2196 298889.000   4077349.2256  -4216499.7440  -2498426.6139   1   8   0.0056   0.0056   0.0040  -0.0046   0.0035  -0.0034  -0.00    5.9
2196 298890.000   4077349.2238  -4216499.7454  -2498426.6140   1   8   0.0056   0.0056   0.0040  -0.0046   0.0035  -0.0034  -0.00    5.9
2196 298891.000   4077349.2258  -4216499.7424  -2498426.6131   1   8   0.0056   0.0056   0.0040  -0.0046   0.0035  -0.0034  -0.00    5.9
2196 298892.000   4077349.2243  -4216499.7424  -2498426.6131   1   8   0.0056   0.0056   0.0040  -0.0046   0.0035  -0.0034  -0.00    6.0
2196 298893.000   4077349.2255  -4216499.7440  -2498426.6116   1   8   0.0056   0.0056   0.0040  -0.0046   0.0035  -0.0034  -0.00    6.0
2196 298894.000   4077349.2252  -4216499.7424  -2498426.6135   1   8   0.0056   0.0056   0.0040  -0.0046   0.0035  -0.0034  -0.00    6.1
2196 298895.000   4077349.2244  -4216499.7442  -2498426.6153   1   8   0.0056   0.0056   0.0040  -0.0046   0.0035  -0.0034  -0.00    6.1
2196 298896.000   4077349.2244  -4216499.7414  -2498426.6125   1   8   0.0056   0.0056   0.0040  -0.0046   0.0035  -0.0034  -0.00    6.1
2196 298897.000   4077349.2264  -4216499.7431  -2498426.6134   1   8   0.0056   0.0056   0.0040  -0.0046   0.0035  -0.0034  -0.00    6.2
2196 298898.000   4077349.2246  -4216499.7403  -2498426.6119   1   8   0.0056   0.0056   0.0040  -0.0046   0.0035  -0.0034  -0.00    6.2
2196 298899.000   4077349.2264  -4216499.7391  -2498426.6128   1   8   0.0056   0.0056   0.0040  -0.0046   0.0035  -0.0034  -0.00    6.2
2196 298900.000   4077349.2267  -4216499.7417  -2498426.6090   1   8   0.0056   0.0056   0.0040  -0.0046   0.0035  -0.0034  -0.00    6.3
2196 298901.000   4077349.2280  -4216499.7437  -2498426.6133   1   8   0.0056   0.0056   0.0040  -0.0046   0.0035  -0.0034  -0.00    6.3
2196 298902.000   4077349.2286  -4216499.7433  -2498426.6146   1   8   0.0056   0.0056   0.0040  -0.0047   0.0035  -0.0034  -0.00    6.3
2196 298903.000   4077349.2277  -4216499.7429  -2498426.6127   1   8   0.0056   0.0056   0.0040  -0.0047   0.0035  -0.0034  -0.00    6.4
2196 298904.000   4077349.2264  -4216499.7417  -2498426.6119   1   8   0.0056   0.0056   0.0040  -0.0047   0.0035  -0.0034  -0.00    6.4
2196 298905.000   4077349.2263  -4216499.7431  -2498426.6118   1   8   0.0056   0.0056   0.0040  -0.0047   0.0035  -0.0034  -0.00    6.4
2196 298906.000   4077349.2284  -4216499.7430  -2498426.6134   1   8   0.0056   0.0056   0.0040  -0.0047   0.0035  -0.0034  -0.00    6.5
2196 298907.000   4077349.2278  -4216499.7442  -2498426.6155   1   8   0.0056   0.0056   0.0040  -0.0047   0.0035  -0.0034  -0.00    6.5
2196 298908.000   4077349.2272  -4216499.7431  -2498426.6109   1   8   0.0056   0.0056   0.0040  -0.0047   0.0035  -0.0034  -0.00    6.5
2196 298909.000   4077349.2250  -4216499.7403  -2498426.6101   1   8   0.0056   0.0056   0.0040  -0.0047   0.0035  -0.0034  -0.00    6.5
2196 298910.000   4077349.2243  -4216499.7425  -2498426.6113   1   8   0.0057   0.0056   0.0040  -0.0047   0.0035  -0.0034  -0.00    6.6
2196 298911.000   4077349.2240  -4216499.7437  -2498426.6140   1   8   0.0057   0.0056   0.0040  -0.0047   0.0035  -0.0034  -0.00    6.6
2196 298912.000   4077349.2255  -4216499.7421  -2498426.6116   1   8   0.0057   0.0056   0.0040  -0.0047   0.0035  -0.0034  -0.00    6.6
2196 298913.000   4077349.2270  -4216499.7422  -2498426.6140   1   8   0.0057   0.0056   0.0040  -0.0047   0.0035  -0.0034  -0.00    6.7
2196 298914.000   4077349.2234  -4216499.7410  -2498426.6127   1   8   0.0057   0.0056   0.0040  -0.0047   0.0035  -0.0034  -0.00    6.7
2196 298915.000   4077349.2238  -4216499.7400  -2498426.6118   1   8   0.0057   0.0056   0.0040  -0.0047   0.0035  -0.0034  -0.00    6.7
2196 298916.000   4077349.2232  -4216499.7432  -2498426.6149   1   8   0.0057   0.0056   0.0040  -0.0047   0.0035  -0.0034  -0.00    6.8
2196 298917.000   4077349.2286  -4216499.7463  -2498426.6151   1   8   0.0057   0.0057   0.0040  -0.0047   0.0035  -0.0034  -0.00    6.8
2196 298918.000   4077349.2272  -4216499.7467  -2498426.6149   1   8   0.0057   0.0057   0.0040  -0.0047   0.0035  -0.0034  -0.00    6.8
2196 298919.000   4077349.2260  -4216499.7445  -2498426.6159   1   8   0.0057   0.0057   0.0040  -0.0047   0.0035  -0.0034  -0.00    6.8
2196 298920.000   4077349.2237  -4216499.7425  -2498426.6127   1   8   0.0057   0.0058   0.0040  -0.0048   0.0035  -0.0034  -0.00    6.9
2196 298921.000   4077349.2188  -4216499.7356  -2498426.6101   1   7   0.0059   0.0061   0.0041  -0.0050   0.0036  -0.0035  -0.00    6.9
2196 298922.000   4077349.2170  -4216499.7343  -2498426.6085   1   7   0.0059   0.0061   0.0041  -0.0050   0.0036  -0.0035  -0.00    6.9
2196 298923.000   4077349.2218  -4216499.7359  -2498426.6088   1   7   0.0059   0.0061   0.0041  -0.0050   0.0036  -0.0035  -0.00    6.9
2196 298924.000   4077349.2172  -4216499.7352  -2498426.6057   1   7   0.0059   0.0061   0.0041  -0.0050   0.0036  -0.0035  -0.00    6.9
2196 298925.000   4077349.2217  -4216499.7348  -2498426.6093   1   7   0.0059   0.0061   0.0041  -0.0050   0.0036  -0.0035  -0.00    7.0
2196 298926.000   4077349.2162  -4216499.7306  -2498426.6057   1   7   0.0059   0.0061   0.0041  -0.0050   0.0036  -0.0035  -0.00    7.0
2196 298927.000   4077349.2227  -4216499.7385  -2498426.6095   1   7   0.0059   0.0061   0.0041  -0.0050   0.0036  -0.0035  -0.00    7.0
2196 298928.000   4077349.2199  -4216499.7305  -2498426.6080   1   7   0.0059   0.0061   0.0041  -0.0050   0.0036  -0.0035  -0.00    7.1
2196 298929.000   4077349.2159  -4216499.7306  -2498426.6056   1   7   0.0059   0.0061   0.0041  -0.0050   0.0036  -0.0035  -0.00    7.1
2196 298930.000   4077349.2204  -4216499.7342  -2498426.6086   1   7   0.0059   0.0061   0.0041  -0.0050   0.0036  -0.0035  -0.00    7.1
2196 298931.000   4077349.2240  -4216499.7388  -2498426.6078   1   7   0.0059   0.0061   0.0041  -0.0050   0.0036  -0.0035  -0.00    7.2
2196 298932.000   4077349.2216  -4216499.7372  -2498426.6105   1   7   0.0059   0.0061   0.0041  -0.0050   0.0036  -0.0035  -0.00    7.2
2196 298933.000   4077349.2241  -4216499.7379  -2498426.6116   1   7   0.0059   0.0061   0.0041  -0.0050   0.0036  -0.0035  -0.00    7.2
2196 298934.000   4077349.2224  -4216499.7388  -2498426.6098   1   7   0.0059   0.0061   0.0041  -0.0050   0.0036  -0.0035  -0.00    7.3
2196 298935.000   4077349.2217  -4216499.7356  -2498426.6077   1   7   0.0059   0.0061   0.0041  -0.0050   0.0036  -0.0035  -0.00    7.3
2196 298936.000   4077349.2197  -4216499.7357  -2498426.6070   1   7   0.0059   0.0061   0.0041  -0.0050   0.0036  -0.0035  -0.00    7.3
2196 298937.000   4077349.2239  -4216499.7380  -2498426.6084   1   7   0.0059   0.0061   0.0041  -0.0050   0.0036  -0.0035  -0.00    7.4
2196 298938.000   4077349.2227  -4216499.7368  -2498426.6085   1   7   0.0059   0.0061   0.0041  -0.0050   0.0036  -0.0035  -0.00    7.4
2196 298939.000   4077349.2195  -4216499.7331  -2498426.6091   1   7   0.0059   0.0061   0.0040  -0.0050   0.0036  -0.0035  -0.00    7.4
2196 298940.000   4077349.2181  -4216499.7339  -2498426.6060   1   7   0.0059   0.0061   0.0040  -0.0050   0.0036  -0.0035  -0.00    7.5
2196 298941.000   4077349.2180  -4216499.7330  -2498426.6112   1   7   0.0059   0.0061   0.0040  -0.0050   0.0036  -0.0035  -0.00    7.5
