% ref pos   :  4005697.7909  -4312255.6484  -2450824.3266
%  GPST              x-ecef(m)      y-ecef(m)      z-ecef(m)   Q  ns   sdx(m)   sdy(m)   sdz(m)  sdxy(m)  sdyz(m)  sdzx(m) age(s)  ratio
2168 479473.000   4005685.8582  -4312284.1824  -2450782.7536   1  10   0.0238   0.0227   0.0062  -0.0229  -0.0073   0.0079   0.01    8.8
2168 479474.000   4005685.8527  -4312284.1782  -2450782.7534   1  10   0.0239   0.0228   0.0062  -0.0230  -0.0073   0.0079   0.01    8.7
2168 479475.000   4005685.8534  -4312284.1804  -2450782.7513   1  10   0.0240   0.0229   0.0062  -0.0231  -0.0073   0.0078   0.01    8.5
2168 479476.000   4005685.8560  -4312284.1801  -2450782.7546   1  10   0.0236   0.0226   0.0062  -0.0227  -0.0073   0.0078   0.01    8.4
2168 479477.000   4005685.8539  -4312284.1780  -2450782.7532   1  10   0.0250   0.0237   0.0062  -0.0240  -0.0072   0.0078   0.01    8.3
2168 479478.000   4005685.8673  -4312284.1904  -2450782.7500   1  10   0.0235   0.0225   0.0062  -0.0226  -0.0073   0.0079   0.01    7.8
2168 479479.000   4005685.8563  -4312284.1818  -2450782.7523   1  10   0.0235   0.0225   0.0062  -0.0226  -0.0073   0.0079   0.01    7.7
2168 479480.000   4005685.8652  -4312284.1917  -2450782.7510   1  10   0.0235   0.0225   0.0062  -0.0226  -0.0073   0.0079   0.01    7.6
2168 479481.000   4005685.8632  -4312284.1874  -2450782.7500   1  10   0.0235   0.0225   0.0062  -0.0226  -0.0073   0.0079   0.01    7.4
2168 479482.000   4005685.8530  -4312284.1781  -2450782.7506   1  10   0.0235   0.0225   0.0062  -0.0226  -0.0073   0.0079   0.01    7.3
2168 479483.000   4005685.8653  -4312284.1930  -2450782.7519   1  10   0.0235   0.0225   0.0062  -0.0226  -0.0073   0.0079   0.01    7.2
2168 479484.000   4005685.8637  -4312284.1886  -2450782.7489   1  10   0.0234   0.0225   0.0062  -0.0226  -0.0073   0.0078   0.01    7.0
2168 479485.000   4005685.8622  -4312284.1868  -2450782.7519   1  10   0.0234   0.0225   0.0062  -0.0226  -0.0073   0.0078   0.01    6.9
2168 479486.000   4005685.8621  -4312284.1873  -2450782.7503   1  10   0.0234   0.0224   0.0062  -0.0226  -0.0073   0.0078   0.01    6.8
2168 479487.000   4005685.8643  -4312284.1904  -2450782.7522   1  10   0.0234   0.0224   0.0062  -0.0226  -0.0073   0.0078   0.01    6.6
2168 479488.000   4005685.8769  -4312284.1992  -2450782.7508   1  10   0.0234   0.0224   0.0062  -0.0226  -0.0073   0.0078   0.01    6.5
2168 479489.000   4005685.8668  -4312284.1921  -2450782.7516   1  10   0.0234   0.0224   0.0062  -0.0226  -0.0073   0.0078   0.01    6.3
2168 479490.000   4005685.8632  -4312284.1878  -2450782.7540   1  10   0.0234   0.0224   0.0062  -0.0226  -0.0073   0.0078   0.01    6.2
2168 479491.000   4005685.8636  -4312284.1851  -2450782.7521   1  10   0.0234   0.0224   0.0062  -0.0226  -0.0073   0.0078   0.01    6.0
2168 479492.000   4005685.8617  -4312284.1856  -2450782.7522   1  10   0.0234   0.0224   0.0062  -0.0226  -0.0073   0.0078   0.01    5.9
2168 479493.000   4005685.8616  -4312284.1860  -2450782.7533   1  10   0.0234   0.0224   0.0062  -0.0226  -0.0073   0.0078   0.01    5.8
2168 479494.000   4005685.8677  -4312284.1918  -2450782.7549   1  10   0.0234   0.0224   0.0062  -0.0226  -0.0073   0.0078   0.01    5.6
2168 479495.000   4005685.8635  -4312284.1869  -2450782.7536   1  10   0.0234   0.0224   0.0062  -0.0226  -0.0073   0.0078   0.01    5.5
2168 479496.000   4005685.8666  -4312284.1893  -2450782.7510   1  10   0.0231   0.0221   0.0060  -0.0223  -0.0069   0.0075   0.01    5.0
2168 479497.000   4005685.8685  -4312284.1898  -2450782.7490   1  11   0.0225   0.0212   0.0060  -0.0215  -0.0071   0.0076   0.01    4.9
2168 479498.000   4005685.8678  -4312284.1907  -2450782.7504   1  11   0.0225   0.0212   0.0060  -0.0215  -0.0071   0.0076   0.01    4.8
2168 479499.000   4005685.8729  -4312284.2003  -2450782.7492   1  11   0.0225   0.0212   0.0060  -0.0215  -0.0071   0.0076   0.01    4.6
2168 479500.000   4005685.8842  -4312284.2045  -2450782.7502   1  11   0.0227   0.0215   0.0061  -0.0217  -0.0074   0.0079   0.01    4.8
2168 479501.000   4005685.9059  -4312284.2232  -2450782.7491   1  11   0.0227   0.0215   0.0061  -0.0217  -0.0074   0.0079   0.01    4.6
2168 479502.000   4005685.8648  -4312284.1930  -2450782.7521   1  11   0.0227   0.0215   0.0061  -0.0217  -0.0074   0.0079   0.01    4.5
2168 479503.000   4005685.8606  -4312284.1827  -2450782.7531   1  10   0.0241   0.0225   0.0061  -0.0229  -0.0073   0.0078   0.01    4.6
2168 479504.000   4005685.8881  -4312284.2086  -2450782.7472   1  11   0.0227   0.0215   0.0061  -0.0217  -0.0074   0.0079   0.01    4.2
2168 479505.000   4005685.8627  -4312284.1833  -2450782.7492   1   9   0.0248   0.0236   0.0061  -0.0239  -0.0071   0.0076   0.01    4.3
2168 479506.000   4005685.8728  -4312284.1959  -2450782.7502   1  10   0.0234   0.0224   0.0061  -0.0225  -0.0072   0.0078   0.01    4.0
2168 479507.000   4005685.8653  -4312284.1887  -2450782.7497   1  10   0.0240   0.0225   0.0061  -0.0229  -0.0073   0.0078   0.01    4.0
2168 479508.000   4005685.8604  -4312284.1831  -2450782.7485   1   9   0.0246   0.0234   0.0060  -0.0236  -0.0067   0.0073   0.01    3.6
2168 479509.000   4005685.8829  -4312284.2055  -2450782.7471   1  10   0.0251   0.0235   0.0067  -0.0240  -0.0085   0.0090   0.01   29.7
2168 479510.000   4005685.8990  -4312284.2191  -2450782.7445   1  11   0.0238   0.0225   0.0067  -0.0228  -0.0086   0.0091   0.01   13.5
2168 479511.000   4005685.9069  -4312284.2284  -2450782.7386   1  11   0.0235   0.0222   0.0065  -0.0225  -0.0082   0.0087   0.01   12.9
2168 479512.000   4005685.8876  -4312284.2102  -2450782.7433   1  11   0.0239   0.0226   0.0068  -0.0229  -0.0087   0.0092   0.01   13.4
2168 479513.000   4005685.9014  -4312284.2233  -2450782.7374   1  10   0.0242   0.0232   0.0066  -0.0234  -0.0082   0.0087   0.01   12.8
2168 479514.000   4005685.8943  -4312284.2172  -2450782.7424   1  11   0.0240   0.0228   0.0069  -0.0231  -0.0089   0.0093   0.01   13.3
2168 479515.000   4005685.8957  -4312284.2189  -2450782.7422   1  11   0.0241   0.0228   0.0069  -0.0231  -0.0090   0.0094   0.01   13.2
2168 479516.000   4005685.9015  -4312284.2205  -2450782.7371   1  11   0.0238   0.0225   0.0067  -0.0228  -0.0086   0.0091   0.01   12.6
2168 479517.000   4005685.8930  -4312284.2169  -2450782.7445   1  11   0.0271   0.0257   0.0085  -0.0261  -0.0117   0.0122   0.01   13.2
2168 479518.000   4005685.8889  -4312284.2092  -2450782.7460   1  11   0.0271   0.0258   0.0085  -0.0262  -0.0118   0.0122   0.01   13.1
2168 479519.000   4005685.9036  -4312284.2272  -2450782.7382   1  10   0.0247   0.0237   0.0069  -0.0238  -0.0087   0.0092   0.01   12.6
2168 479520.000   4005685.8882  -4312284.2088  -2450782.7431   1  10   0.0271   0.0260   0.0081  -0.0262  -0.0110   0.0115   0.01   12.6
2168 479521.000   4005685.8381  -4312284.1625  -2450782.7622   1  10   0.0251   0.0240   0.0071  -0.0242  -0.0091   0.0096   0.01   12.5
2168 479522.000   4005685.8638  -4312284.1876  -2450782.7535   1  10   0.0172   0.0165   0.0047  -0.0166  -0.0059   0.0062   0.01    4.8
2168 479523.000   4005685.9125  -4312284.2353  -2450782.7325   1   9   0.0260   0.0249   0.0090  -0.0253  -0.0133   0.0137   0.01    4.5
2168 479524.000   4005685.8788  -4312284.1995  -2450782.7462   1  10   0.0189   0.0181   0.0056  -0.0183  -0.0075   0.0079   0.01    5.9
2168 479525.000   4005685.8956  -4312284.2180  -2450782.7369   1   9   0.0260   0.0249   0.0090  -0.0253  -0.0133   0.0137   0.01    4.5
2168 479526.000   4005685.8258  -4312284.1502  -2450782.7653   1  10   0.0190   0.0182   0.0056  -0.0184  -0.0076   0.0080   0.01    5.9
2168 479527.000   4005685.8829  -4312284.2013  -2450782.7472   1   9   0.0297   0.0287   0.0106  -0.0291  -0.0160   0.0164   0.01    3.5
2168 479528.000   4005685.8802  -4312284.2021  -2450782.7421   1  11   0.0186   0.0176   0.0057  -0.0179  -0.0078   0.0081   0.01    5.9
2168 479529.000   4005685.8695  -4312284.1939  -2450782.7525   1  10   0.0173   0.0166   0.0048  -0.0167  -0.0060   0.0063   0.01    6.7
2168 479530.000   4005685.8650  -4312284.1885  -2450782.7497   1  10   0.0175   0.0168   0.0049  -0.0169  -0.0061   0.0065   0.01    6.8
2168 479531.000   4005685.8596  -4312284.1830  -2450782.7512   1  10   0.0180   0.0173   0.0052  -0.0174  -0.0067   0.0070   0.01    4.3
2168 479532.000   4005685.8711  -4312284.1941  -2450782.7479   1  10   0.0183   0.0176   0.0053  -0.0177  -0.0070   0.0074   0.01    4.2
2168 479533.000   4005685.8876  -4312284.2101  -2450782.7399   1  11   0.0183   0.0174   0.0055  -0.0176  -0.0075   0.0078   0.01    4.1
2168 479534.000   4005685.8322  -4312284.1537  -2450782.7647   1  11   0.0183   0.0174   0.0055  -0.0176  -0.0075   0.0078   0.01    3.6
2168 479535.000   4005685.8697  -4312284.1906  -2450782.7522   1  10   0.0187   0.0180   0.0056  -0.0181  -0.0075   0.0078   0.01    3.7
2168 479536.000   4005685.8803  -4312284.2044  -2450782.7462   1  11   0.0178   0.0169   0.0053  -0.0172  -0.0071   0.0074   0.01    3.7
2168 479537.000   4005685.8664  -4312284.1886  -2450782.7508   1  11   0.0175   0.0166   0.0051  -0.0168  -0.0068   0.0071   0.01    3.8
2168 479538.000   4005685.8910  -4312284.2091  -2450782.7433   1  11   0.0173   0.0164   0.0050  -0.0166  -0.0066   0.0069   0.01    3.8
2168 479539.000   4005685.8854  -4312284.2091  -2450782.7469   1  11   0.0171   0.0163   0.0049  -0.0165  -0.0064   0.0067   0.01    3.8
2168 479540.000   4005685.8866  -4312284.2063  -2450782.7444   1  11   0.0168   0.0159   0.0047  -0.0161  -0.0060   0.0063   0.01    4.9
2168 479541.000   4005685.8811  -4312284.2012  -2450782.7455   1  11   0.0169   0.0160   0.0048  -0.0162  -0.0062   0.0065   0.01    3.9
2168 479542.000   4005685.8881  -4312284.2092  -2450782.7416   1  11   0.0166   0.0157   0.0046  -0.0159  -0.0058   0.0061   0.01    5.3
2168 479543.000   4005685.8874  -4312284.2063  -2450782.7450   1  11   0.0158   0.0149   0.0042  -0.0151  -0.0049   0.0053   0.01    4.2
2168 479544.000   4005685.8766  -4312284.1980  -2450782.7521   1  11   0.0159   0.0151   0.0043  -0.0153  -0.0051   0.0055   0.01    4.2
2168 479545.000   4005685.8833  -4312284.2041  -2450782.7498   1  11   0.0158   0.0149   0.0042  -0.0151  -0.0049   0.0053   0.01    5.1
2168 479546.000   4005685.8742  -4312284.1962  -2450782.7498   1  11   0.0158   0.0149   0.0042  -0.0151  -0.0049   0.0053   0.01    5.5
2168 479547.000   4005685.8689  -4312284.1911  -2450782.7474   1  11   0.0162   0.0153   0.0042  -0.0155  -0.0049   0.0052   0.01    7.0
2168 479548.000   4005685.8746  -4312284.1950  -2450782.7499   1  11   0.0162   0.0153   0.0043  -0.0155  -0.0051   0.0054   0.01    5.8
2168 479549.000   4005685.8769  -4312284.1939  -2450782.7474   1  11   0.0161   0.0152   0.0043  -0.0154  -0.0051   0.0054   0.01    5.8
2168 479550.000   4005685.8675  -4312284.1912  -2450782.7457   1  11   0.0159   0.0150   0.0042  -0.0152  -0.0049   0.0053   0.01    8.5
2168 479551.000   4005685.8653  -4312284.1886  -2450782.7507   1  11   0.0159   0.0150   0.0042  -0.0152  -0.0049   0.0053   0.01    8.6
2168 479552.000   4005685.8662  -4312284.1911  -2450782.7533   1  11   0.0160   0.0151   0.0043  -0.0153  -0.0051   0.0054   0.01    5.8
2168 479553.000   4005685.8592  -4312284.1822  -2450782.7522   1  10   0.0168   0.0158   0.0043  -0.0161  -0.0050   0.0054   0.01    5.8
2168 479554.000   4005685.8681  -4312284.1893  -2450782.7488   1  11   0.0160   0.0151   0.0043  -0.0153  -0.0051   0.0054   0.01    5.8
2168 479555.000   4005685.8310  -4312284.1528  -2450782.7610   1  11   0.0160   0.0151   0.0043  -0.0153  -0.0051   0.0054   0.01    5.8
2168 479556.000   4005685.8244  -4312284.1505  -2450782.7585   1  11   0.0158   0.0150   0.0042  -0.0151  -0.0049   0.0053   0.01    8.8
2168 479557.000   4005685.8320  -4312284.1520  -2450782.7641   1  11   0.0182   0.0174   0.0055  -0.0176  -0.0075   0.0078   0.01    5.8
2168 479558.000   4005685.8571  -4312284.1785  -2450782.7576   1  11   0.0182   0.0173   0.0055  -0.0175  -0.0075   0.0078   0.01    3.4
2168 479559.000   4005685.8503  -4312284.1684  -2450782.7585   1  11   0.0182   0.0173   0.0055  -0.0175  -0.0075   0.0078   0.01    3.6
2168 479560.000   4005685.8595  -4312284.1796  -2450782.7536   1  11   0.0182   0.0173   0.0055  -0.0175  -0.0075   0.0078   0.01    3.8
2168 479561.000   4005685.8433  -4312284.1632  -2450782.7594   1  11   0.0182   0.0173   0.0055  -0.0175  -0.0075   0.0078   0.01    4.0
2168 479562.000   4005685.8337  -4312284.1563  -2450782.7625   1  11   0.0182   0.0173   0.0055  -0.0175  -0.0075   0.0078   0.01    4.3
2168 479563.000   4005685.8629  -4312284.1840  -2450782.7493   1  11   0.0157   0.0149   0.0042  -0.0151  -0.0049   0.0052   0.01    4.1
2168 479564.000   4005685.8596  -4312284.1810  -2450782.7557   1  11   0.0158   0.0150   0.0043  -0.0152  -0.0051   0.0054   0.01    4.7
2168 479565.000   4005685.8712  -4312284.1912  -2450782.7508   1  11   0.0157   0.0149   0.0042  -0.0150  -0.0049   0.0052   0.01    4.5
2168 479566.000   4005685.8661  -4312284.1866  -2450782.7488   1  11   0.0158   0.0150   0.0043  -0.0152  -0.0051   0.0054   0.01    5.1
2168 479567.000   4005685.8753  -4312284.1918  -2450782.7519   1  11   0.0158   0.0150   0.0043  -0.0152  -0.0051   0.0054   0.01    5.3
2168 479568.000   4005685.8671  -4312284.1859  -2450782.7487   1  11   0.0158   0.0150   0.0043  -0.0152  -0.0051   0.0054   0.01    5.5
2168 479569.000   4005685.8568  -4312284.1801  -2450782.7520   1  11   0.0158   0.0150   0.0043  -0.0152  -0.0051   0.0054   0.01    5.7
2168 479570.000   4005685.8608  -4312284.1818  -2450782.7518   1  11   0.0158   0.0150   0.0043  -0.0152  -0.0051   0.0054   0.01    5.7
2168 479571.000   4005685.8682  -4312284.1875  -2450782.7483   1  11   0.0158   0.0150   0.0042  -0.0152  -0.0051   0.0054   0.01    5.7
2168 479572.000   4005685.8714  -4312284.1926  -2450782.7466   1  11   0.0157   0.0149   0.0042  -0.0150  -0.0049   0.0052   0.01    5.6
2168 479573.000   4005685.8702  -4312284.1907  -2450782.7490   1  11   0.0157   0.0149   0.0042  -0.0150  -0.0049   0.0052   0.01    5.7
2168 479574.000   4005685.8747  -4312284.1959  -2450782.7508   1  11   0.0157   0.0149   0.0041  -0.0150  -0.0049   0.0052   0.01    5.8
2168 479575.000   4005685.8576  -4312284.1769  -2450782.7542   1  11   0.0158   0.0150   0.0042  -0.0151  -0.0050   0.0054   0.01    6.2
2168 479576.000   4005685.8514  -4312284.1721  -2450782.7572   1  11   0.0158   0.0150   0.0042  -0.0151  -0.0050   0.0054   0.01    6.1
2168 479577.000   4005685.8649  -4312284.1833  -2450782.7521   1  11   0.0158   0.0150   0.0042  -0.0151  -0.0050   0.0054   0.01    6.2
2168 479578.000   4005685.8682  -4312284.1872  -2450782.7498   1  11   0.0157   0.0148   0.0041  -0.0150  -0.0049   0.0052   0.01    6.5
2168 479579.000   4005685.8790  -4312284.1991  -2450782.7473   1  11   0.0158   0.0150   0.0042  -0.0151  -0.0050   0.0054   0.01    6.2
2168 479580.000   4005685.8769  -4312284.1956  -2450782.7467   1  11   0.0157   0.0148   0.0041  -0.0150  -0.0049   0.0052   0.01    6.9
2168 479581.000   4005685.8693  -4312284.1875  -2450782.7453   1  11   0.0157   0.0148   0.0041  -0.0150  -0.0049   0.0052   0.01    7.0
2168 479582.000   4005685.8808  -4312284.2011  -2450782.7441   1  11   0.0157   0.0148   0.0041  -0.0150  -0.0048   0.0052   0.01    7.1
2168 479583.000   4005685.8806  -4312284.1996  -2450782.7459   1  11   0.0157   0.0148   0.0041  -0.0150  -0.0048   0.0052   0.01    7.3
2168 479584.000   4005685.8703  -4312284.1907  -2450782.7475   1  11   0.0157   0.0148   0.0041  -0.0150  -0.0048   0.0052   0.01    7.4
2168 479585.000   4005685.8793  -4312284.2012  -2450782.7431   1  11   0.0157   0.0148   0.0041  -0.0150  -0.0048   0.0052   0.01    7.5
2168 479586.000   4005685.8754  -4312284.1950  -2450782.7443   1  11   0.0157   0.0148   0.0041  -0.0150  -0.0048   0.0052   0.01    7.7
2168 479587.000   4005685.8810  -4312284.1991  -2450782.7401   1  11   0.0156   0.0148   0.0041  -0.0150  -0.0048   0.0052   0.01    7.8
2168 479588.000   4005685.8808  -4312284.2012  -2450782.7439   1  11   0.0156   0.0148   0.0041  -0.0150  -0.0048   0.0052   0.01    8.0
2168 479589.000   4005685.8732  -4312284.1922  -2450782.7432   1  11   0.0156   0.0148   0.0041  -0.0150  -0.0048   0.0052   0.01    8.0
2168 479590.000   4005685.8846  -4312284.2034  -2450782.7422   1  11   0.0156   0.0148   0.0041  -0.0150  -0.0048   0.0052   0.01    8.2
2168 479591.000   4005685.8741  -4312284.1953  -2450782.7441   1  11   0.0157   0.0149   0.0042  -0.0151  -0.0050   0.0053   0.01    6.0
2168 479592.000   4005685.8704  -4312284.1911  -2450782.7467   1  11   0.0156   0.0148   0.0041  -0.0150  -0.0048   0.0052   0.01    8.4
2168 479593.000   4005685.8800  -4312284.1999  -2450782.7442   1  11   0.0157   0.0149   0.0042  -0.0151  -0.0050   0.0053   0.01    5.9
2168 479594.000   4005685.8726  -4312284.1921  -2450782.7454   1  11   0.0156   0.0148   0.0041  -0.0150  -0.0048   0.0052   0.01    8.6
2168 479595.000   4005685.8796  -4312284.2005  -2450782.7469   1  11   0.0156   0.0148   0.0041  -0.0150  -0.0048   0.0052   0.01    8.6
2168 479596.000   4005685.8787  -4312284.2010  -2450782.7443   1  11   0.0156   0.0148   0.0041  -0.0150  -0.0048   0.0052   0.01    8.7
2168 479597.000   4005685.8796  -4312284.2015  -2450782.7426   1  11   0.0156   0.0148   0.0041  -0.0150  -0.0048   0.0052   0.01    8.7
2168 479598.000   4005685.8810  -4312284.2004  -2450782.7430   1  11   0.0157   0.0149   0.0042  -0.0151  -0.0050   0.0053   0.01    5.7
2168 479599.000   4005685.8831  -4312284.2039  -2450782.7449   1  11   0.0157   0.0149   0.0042  -0.0150  -0.0050   0.0053   0.01    5.7
2168 479600.000   4005685.8711  -4312284.1944  -2450782.7472   1  11   0.0157   0.0149   0.0042  -0.0150  -0.0050   0.0053   0.01    5.7
2168 479601.000   4005685.8686  -4312284.1896  -2450782.7462   1  11   0.0157   0.0149   0.0042  -0.0150  -0.0050   0.0053   0.01    5.7
2168 479602.000   4005685.8839  -4312284.2046  -2450782.7431   1  11   0.0156   0.0148   0.0041  -0.0149  -0.0048   0.0051   0.01    9.1
2168 479603.000   4005685.8831  -4312284.2031  -2450782.7422   1  11   0.0156   0.0148   0.0041  -0.0149  -0.0048   0.0051   0.01    9.2
2168 479604.000   4005685.8722  -4312284.1963  -2450782.7441   1  11   0.0157   0.0149   0.0042  -0.0150  -0.0050   0.0053   0.01    5.5
2168 479605.000   4005685.8815  -4312284.2044  -2450782.7455   1  11   0.0156   0.0148   0.0041  -0.0149  -0.0048   0.0051   0.01    9.2
2168 479606.000   4005685.8848  -4312284.2042  -2450782.7425   1  11   0.0156   0.0148   0.0041  -0.0149  -0.0048   0.0051   0.01    9.1
2168 479607.000   4005685.8837  -4312284.2050  -2450782.7447   1  11   0.0156   0.0148   0.0041  -0.0149  -0.0048   0.0051   0.01    9.1
2168 479608.000   4005685.8771  -4312284.1979  -2450782.7447   1  11   0.0156   0.0148   0.0041  -0.0149  -0.0048   0.0051   0.01    9.2
2168 479609.000   4005685.8799  -4312284.1995  -2450782.7432   1  11   0.0156   0.0148   0.0041  -0.0149  -0.0048   0.0051   0.01    9.1
2168 479610.000   4005685.8805  -4312284.2023  -2450782.7474   1  11   0.0156   0.0148   0.0041  -0.0149  -0.0048   0.0051   0.01    9.2
2168 479611.000   4005685.8850  -4312284.2058  -2450782.7421   1  11   0.0156   0.0148   0.0041  -0.0149  -0.0048   0.0051   0.01    9.2
2168 479612.000   4005685.8748  -4312284.1945  -2450782.7449   1  11   0.0156   0.0148   0.0041  -0.0149  -0.0048   0.0051   0.01    9.2
2168 479613.000   4005685.8938  -4312284.2142  -2450782.7400   1  11   0.0156   0.0148   0.0041  -0.0149  -0.0048   0.0051   0.01    9.2
2168 479614.000   4005685.8814  -4312284.2010  -2450782.7432   1  11   0.0155   0.0148   0.0041  -0.0149  -0.0048   0.0051   0.01    9.2
2168 479615.000   4005685.8862  -4312284.2061  -2450782.7425   1  11   0.0155   0.0148   0.0041  -0.0149  -0.0048   0.0051   0.01    9.2
2168 479616.000   4005685.8881  -4312284.2081  -2450782.7452   1  11   0.0155   0.0148   0.0041  -0.0149  -0.0048   0.0051   0.01    9.2
2168 479617.000   4005685.8785  -4312284.2028  -2450782.7454   1  11   0.0155   0.0147   0.0041  -0.0149  -0.0048   0.0051   0.01    9.2
2168 479618.000   4005685.8749  -4312284.1969  -2450782.7444   1  11   0.0155   0.0147   0.0041  -0.0149  -0.0048   0.0051   0.01    9.2
2168 479619.000   4005685.8833  -4312284.2037  -2450782.7457   1  11   0.0155   0.0147   0.0041  -0.0149  -0.0048   0.0051   0.01    9.2
2168 479620.000   4005685.8749  -4312284.1974  -2450782.7472   1  11   0.0155   0.0147   0.0041  -0.0149  -0.0048   0.0051   0.01    9.2
2168 479621.000   4005685.8741  -4312284.1984  -2450782.7477   1  11   0.0155   0.0147   0.0041  -0.0149  -0.0048   0.0051   0.01    9.1
2168 479622.000   4005685.8737  -4312284.1966  -2450782.7492   1  11   0.0155   0.0147   0.0041  -0.0149  -0.0048   0.0051   0.01    9.1
2168 479623.000   4005685.8785  -4312284.2005  -2450782.7471   1  11   0.0155   0.0147   0.0041  -0.0149  -0.0048   0.0051   0.01    9.1
2168 479624.000   4005685.8732  -4312284.1922  -2450782.7496   1  11   0.0155   0.0147   0.0041  -0.0149  -0.0048   0.0051   0.01    9.1
2168 479625.000   4005685.8885  -4312284.2090  -2450782.7481   1  11   0.0155   0.0147   0.0041  -0.0149  -0.0047   0.0051   0.01    9.1
2168 479626.000   4005685.8815  -4312284.2015  -2450782.7460   1  11   0.0155   0.0147   0.0041  -0.0149  -0.0047   0.0051   0.01    9.1
2168 479627.000   4005685.8888  -4312284.2059  -2450782.7425   1  11   0.0155   0.0147   0.0041  -0.0149  -0.0047   0.0051   0.01    9.2
2168 479628.000   4005685.8848  -4312284.2045  -2450782.7434   1  11   0.0155   0.0147   0.0041  -0.0149  -0.0047   0.0051   0.01    9.2
2168 479629.000   4005685.8738  -4312284.1955  -2450782.7446   1  11   0.0156   0.0148   0.0042  -0.0149  -0.0049   0.0052   0.01    5.2
2168 479630.000   4005685.8920  -4312284.2117  -2450782.7431   1  11   0.0156   0.0148   0.0042  -0.0149  -0.0049   0.0052   0.01    5.2
2168 479631.000   4005685.8756  -4312284.1997  -2450782.7471   1  11   0.0155   0.0147   0.0041  -0.0148  -0.0047   0.0051   0.01    9.2
2168 479632.000   4005685.8816  -4312284.2007  -2450782.7443   1  11   0.0155   0.0148   0.0042  -0.0149  -0.0049   0.0052   0.01    5.2
2168 479633.000   4005685.8846  -4312284.2045  -2450782.7457   1  11   0.0155   0.0147   0.0041  -0.0148  -0.0047   0.0051   0.01    9.3
2168 479634.000   4005685.8988  -4312284.2197  -2450782.7444   1  11   0.0155   0.0147   0.0041  -0.0148  -0.0047   0.0051   0.01    9.3
2168 479635.000   4005685.8950  -4312284.2152  -2450782.7452   1  11   0.0155   0.0148   0.0042  -0.0149  -0.0049   0.0052   0.01    5.2
2168 479636.000   4005685.8890  -4312284.2112  -2450782.7447   1  11   0.0155   0.0148   0.0042  -0.0149  -0.0049   0.0052   0.01    5.2
2168 479637.000   4005685.8744  -4312284.1953  -2450782.7468   1  11   0.0155   0.0147   0.0041  -0.0148  -0.0047   0.0050   0.01    9.4
2168 479638.000   4005685.8897  -4312284.2097  -2450782.7397   1  11   0.0155   0.0147   0.0041  -0.0148  -0.0047   0.0050   0.01    9.4
2168 479639.000   4005685.8786  -4312284.2002  -2450782.7426   1  11   0.0155   0.0147   0.0041  -0.0148  -0.0047   0.0050   0.01    9.4
2168 479640.000   4005685.8732  -4312284.1967  -2450782.7481   1  11   0.0154   0.0147   0.0041  -0.0148  -0.0047   0.0050   0.01    9.4
2168 479641.000   4005685.8808  -4312284.2034  -2450782.7459   1  11   0.0154   0.0147   0.0041  -0.0148  -0.0047   0.0050   0.01    9.5
2168 479642.000   4005685.8835  -4312284.2060  -2450782.7454   1  11   0.0154   0.0147   0.0041  -0.0148  -0.0047   0.0050   0.01    9.5
2168 479643.000   4005685.8769  -4312284.1993  -2450782.7441   1  11   0.0155   0.0147   0.0041  -0.0148  -0.0047   0.0050   0.01    9.5
2168 479644.000   4005685.8714  -4312284.1919  -2450782.7469   1  11   0.0154   0.0147   0.0041  -0.0148  -0.0047   0.0050   0.01    9.5
2168 479645.000   4005685.8855  -4312284.2054  -2450782.7438   1  11   0.0154   0.0147   0.0041  -0.0148  -0.0047   0.0050   0.01    9.6
2168 479646.000   4005685.8737  -4312284.1967  -2450782.7493   1  11   0.0154   0.0147   0.0041  -0.0148  -0.0047   0.0050   0.01    9.7
2168 479647.000   4005685.8728  -4312284.1961  -2450782.7445   1  11   0.0154   0.0147   0.0041  -0.0148  -0.0047   0.0050   0.01    9.7
2168 479648.000   4005685.8784  -4312284.1985  -2450782.7462   1  11   0.0154   0.0147   0.0041  -0.0148  -0.0047   0.0050   0.01    9.8
2168 479649.000   4005685.8760  -4312284.1966  -2450782.7451   1  11   0.0154   0.0147   0.0041  -0.0148  -0.0047   0.0050   0.01    9.8
2168 479650.000   4005685.8764  -4312284.1980  -2450782.7477   1  11   0.0154   0.0147   0.0041  -0.0148  -0.0047   0.0050   0.01    9.8
2168 479651.000   4005685.8738  -4312284.1959  -2450782.7482   1  11   0.0154   0.0147   0.0041  -0.0148  -0.0047   0.0050   0.01    9.9
2168 479652.000   4005685.8731  -4312284.1938  -2450782.7474   1  11   0.0154   0.0147   0.0041  -0.0148  -0.0047   0.0050   0.01    9.9
2168 479653.000   4005685.8796  -4312284.1999  -2450782.7441   1  11   0.0154   0.0147   0.0041  -0.0148  -0.0047   0.0050   0.01    9.9
2168 479654.000   4005685.8808  -4312284.2028  -2450782.7485   1  11   0.0155   0.0147   0.0042  -0.0149  -0.0048   0.0051   0.01    5.5
2168 479655.000   4005685.8753  -4312284.1985  -2450782.7469   1  11   0.0154   0.0147   0.0041  -0.0148  -0.0047   0.0050   0.01    9.9
2168 479656.000   4005685.8805  -4312284.2005  -2450782.7481   1  11   0.0154   0.0147   0.0041  -0.0148  -0.0047   0.0050   0.01   10.0
2168 479657.000   4005685.8775  -4312284.1964  -2450782.7496   1  11   0.0154   0.0147   0.0041  -0.0148  -0.0047   0.0050   0.01   10.0
2168 479658.000   4005685.8752  -4312284.1958  -2450782.7476   1  11   0.0154   0.0147   0.0041  -0.0148  -0.0047   0.0050   0.01   10.1
2168 479659.000   4005685.8788  -4312284.2003  -2450782.7466   1  11   0.0154   0.0147   0.0041  -0.0148  -0.0047   0.0050   0.01   10.1
2168 479660.000   4005685.8753  -4312284.1966  -2450782.7480   1  11   0.0154   0.0147   0.0041  -0.0148  -0.0047   0.0050   0.01   10.1
2168 479661.000   4005685.8807  -4312284.1992  -2450782.7493   1  11   0.0154   0.0147   0.0041  -0.0148  -0.0047   0.0050   0.01   10.1
2168 479662.000   4005685.8631  -4312284.1837  -2450782.7500   1  11   0.0154   0.0147   0.0041  -0.0148  -0.0046   0.0050   0.01   10.1
2168 479663.000   4005685.8816  -4312284.1992  -2450782.7452   1  11   0.0154   0.0147   0.0041  -0.0148  -0.0046   0.0050   0.01   10.2
2168 479664.000   4005685.8727  -4312284.1924  -2450782.7474   1  11   0.0154   0.0147   0.0041  -0.0148  -0.0046   0.0050   0.01   10.2
2168 479665.000   4005685.8807  -4312284.2000  -2450782.7492   1  11   0.0154   0.0147   0.0041  -0.0148  -0.0046   0.0050   0.01   10.3
2168 479666.000   4005685.8740  -4312284.1947  -2450782.7484   1  11   0.0155   0.0147   0.0041  -0.0148  -0.0048   0.0050   0.01    5.6
2168 479667.000   4005685.8759  -4312284.1931  -2450782.7487   1  11   0.0155   0.0147   0.0041  -0.0148  -0.0048   0.0050   0.01    5.7
2168 479668.000   4005685.8797  -4312284.1985  -2450782.7466   1  11   0.0154   0.0147   0.0041  -0.0148  -0.0046   0.0049   0.01   10.4
2168 479669.000   4005685.8760  -4312284.1959  -2450782.7473   1  11   0.0155   0.0148   0.0041  -0.0149  -0.0047   0.0050   0.01    5.7
2168 479670.000   4005685.8784  -4312284.1989  -2450782.7440   1  11   0.0155   0.0148   0.0041  -0.0149  -0.0047   0.0050   0.01    5.7
2168 479671.000   4005685.8769  -4312284.1986  -2450782.7489   1  11   0.0154   0.0147   0.0041  -0.0148  -0.0047   0.0050   0.01    6.0
2168 479672.000   4005685.8729  -4312284.1957  -2450782.7497   1  11   0.0156   0.0148   0.0041  -0.0149  -0.0047   0.0050   0.01    6.0
2168 479673.000   4005685.8673  -4312284.1928  -2450782.7510   1  11   0.0154   0.0147   0.0041  -0.0148  -0.0047   0.0050   0.01    6.0
2168 479674.000   4005685.8772  -4312284.1978  -2450782.7488   1  11   0.0153   0.0146   0.0041  -0.0147  -0.0046   0.0049   0.01   10.6
2168 479675.000   4005685.8721  -4312284.1938  -2450782.7506   1  11   0.0153   0.0146   0.0041  -0.0147  -0.0046   0.0049   0.01   10.7
2168 479676.000   4005685.8831  -4312284.2026  -2450782.7486   1  11   0.0153   0.0146   0.0041  -0.0147  -0.0046   0.0049   0.01   10.7
2168 479677.000   4005685.8723  -4312284.1943  -2450782.7479   1  11   0.0154   0.0147   0.0041  -0.0148  -0.0047   0.0050   0.01    6.1
2168 479678.000   4005685.8704  -4312284.1942  -2450782.7512   1  11   0.0154   0.0147   0.0041  -0.0147  -0.0047   0.0050   0.01    6.1
2168 479679.000   4005685.8741  -4312284.1938  -2450782.7502   1  11   0.0154   0.0147   0.0041  -0.0147  -0.0047   0.0050   0.01    6.1
2168 479680.000   4005685.8705  -4312284.1932  -2450782.7482   1  11   0.0153   0.0146   0.0041  -0.0147  -0.0046   0.0049   0.01   10.8
2168 479681.000   4005685.8644  -4312284.1864  -2450782.7499   1  11   0.0153   0.0147   0.0041  -0.0147  -0.0047   0.0050   0.01    6.1
2168 479682.000   4005685.8724  -4312284.1952  -2450782.7494   1  11   0.0153   0.0146   0.0041  -0.0147  -0.0047   0.0050   0.01    6.1
2168 479683.000   4005685.8800  -4312284.2000  -2450782.7485   1  11   0.0153   0.0146   0.0041  -0.0147  -0.0046   0.0049   0.01   10.9
2168 479684.000   4005685.8745  -4312284.1963  -2450782.7481   1  11   0.0153   0.0146   0.0041  -0.0147  -0.0047   0.0050   0.01    6.1
2168 479685.000   4005685.8672  -4312284.1876  -2450782.7499   1  11   0.0153   0.0146   0.0041  -0.0147  -0.0047   0.0050   0.01    6.1
2168 479686.000   4005685.8692  -4312284.1929  -2450782.7488   1  11   0.0153   0.0146   0.0040  -0.0147  -0.0046   0.0049   0.01   10.9
2168 479687.000   4005685.9015  -4312284.2193  -2450782.7505   1  11   0.0153   0.0146   0.0040  -0.0147  -0.0046   0.0049   0.01   11.0
2168 479688.000   4005685.8908  -4312284.2102  -2450782.7494   1  11   0.0153   0.0146   0.0040  -0.0147  -0.0046   0.0049   0.01   11.0
2168 479689.000   4005685.8901  -4312284.2069  -2450782.7483   1  11   0.0153   0.0146   0.0041  -0.0147  -0.0047   0.0050   0.01    6.1
2168 479690.000   4005685.8924  -4312284.2091  -2450782.7486   1  11   0.0153   0.0146   0.0040  -0.0147  -0.0046   0.0049   0.01   11.0
2168 479691.000   4005685.9004  -4312284.2193  -2450782.7471   1  11   0.0153   0.0146   0.0040  -0.0147  -0.0046   0.0049   0.01   11.0
2168 479692.000   4005685.8947  -4312284.2108  -2450782.7506   1  11   0.0153   0.0146   0.0041  -0.0147  -0.0047   0.0050   0.01    6.1
2168 479693.000   4005685.8884  -4312284.2092  -2450782.7457   1  11   0.0153   0.0146   0.0040  -0.0147  -0.0046   0.0049   0.01   11.1
2168 479694.000   4005685.8895  -4312284.2104  -2450782.7540   1  11   0.0153   0.0146   0.0040  -0.0147  -0.0046   0.0049   0.01   11.1
2168 479695.000   4005685.8861  -4312284.2112  -2450782.7519   1  11   0.0153   0.0146   0.0040  -0.0147  -0.0046   0.0049   0.01   11.2
2168 479696.000   4005685.9345  -4312284.2519  -2450782.7495   1  11   0.0154   0.0146   0.0040  -0.0147  -0.0045   0.0048   0.01   11.3
2168 479697.000   4005685.8879  -4312284.2076  -2450782.7447   1   9   0.0182   0.0169   0.0041  -0.0173  -0.0044   0.0047   0.01    6.8
2168 479698.000   4005685.8756  -4312284.1930  -2450782.7531   1  10   0.0161   0.0153   0.0041  -0.0155  -0.0045   0.0048   0.01    6.5
2168 479699.000   4005685.9080  -4312284.2193  -2450782.7514   1  11   0.0155   0.0147   0.0041  -0.0148  -0.0046   0.0049   0.01    6.3
2168 479700.000   4005685.8717  -4312284.1894  -2450782.7534   1  11   0.0156   0.0149   0.0041  -0.0150  -0.0046   0.0049   0.01    6.3
2168 479701.000   4005685.8583  -4312284.1769  -2450782.7508   1  10   0.0161   0.0153   0.0041  -0.0154  -0.0045   0.0048   0.01    6.6
2168 479702.000   4005685.8568  -4312284.1817  -2450782.7504   1  10   0.0161   0.0153   0.0041  -0.0154  -0.0045   0.0048   0.01    6.6
2168 479703.000   4005685.8808  -4312284.2011  -2450782.7427   1  10   0.0161   0.0153   0.0041  -0.0154  -0.0045   0.0048   0.01    6.7
2168 479704.000   4005685.8758  -4312284.2021  -2450782.7501   1  10   0.0161   0.0153   0.0041  -0.0154  -0.0045   0.0048   0.01    6.7
2168 479705.000   4005685.8514  -4312284.1807  -2450782.7543   1  10   0.0161   0.0153   0.0041  -0.0154  -0.0045   0.0048   0.01    6.8
2168 479706.000   4005685.8680  -4312284.1984  -2450782.7519   1  10   0.0161   0.0152   0.0040  -0.0154  -0.0044   0.0047   0.01   11.9
2168 479707.000   4005685.8753  -4312284.2005  -2450782.7424   1  10   0.0161   0.0152   0.0040  -0.0154  -0.0044   0.0047   0.01   11.9
2168 479708.000   4005685.8786  -4312284.2040  -2450782.7448   1  11   0.0156   0.0148   0.0040  -0.0149  -0.0045   0.0048   0.01   12.2
2168 479709.000   4005685.8521  -4312284.1770  -2450782.7526   1  10   0.0161   0.0152   0.0040  -0.0154  -0.0044   0.0047   0.01   12.2
2168 479710.000   4005685.8423  -4312284.1729  -2450782.7552   1  10   0.0161   0.0152   0.0040  -0.0154  -0.0044   0.0047   0.01   12.2
2168 479711.000   4005685.8611  -4312284.1899  -2450782.7550   1  10   0.0161   0.0152   0.0040  -0.0154  -0.0044   0.0047   0.01   12.2
2168 479712.000   4005685.8745  -4312284.1984  -2450782.7522   1  11   0.0154   0.0147   0.0041  -0.0148  -0.0046   0.0049   0.01    6.8
2168 479713.000   4005685.8815  -4312284.2049  -2450782.7529   1  11   0.0153   0.0146   0.0040  -0.0147  -0.0045   0.0048   0.01   12.3
2168 479714.000   4005685.8694  -4312284.1949  -2450782.7504   1  10   0.0160   0.0152   0.0040  -0.0154  -0.0044   0.0047   0.01   12.4
2168 479715.000   4005685.8687  -4312284.1970  -2450782.7508   1  11   0.0152   0.0145   0.0040  -0.0146  -0.0045   0.0048   0.01   12.4
2168 479716.000   4005685.8725  -4312284.1995  -2450782.7500   1  10   0.0160   0.0152   0.0040  -0.0154  -0.0044   0.0047   0.01   12.5
2168 479717.000   4005685.8698  -4312284.1952  -2450782.7542   1  11   0.0152   0.0145   0.0040  -0.0146  -0.0045   0.0048   0.01   12.6
2168 479718.000   4005685.8610  -4312284.1867  -2450782.7484   1  10   0.0160   0.0152   0.0040  -0.0153  -0.0044   0.0047   0.01   12.5
2168 479719.000   4005685.8496  -4312284.1784  -2450782.7499   1  10   0.0160   0.0152   0.0040  -0.0153  -0.0044   0.0047   0.01   12.5
2168 479720.000   4005685.8657  -4312284.1901  -2450782.7473   1  10   0.0160   0.0152   0.0041  -0.0154  -0.0045   0.0047   0.01    6.8
2168 479721.000   4005685.8548  -4312284.1818  -2450782.7494   1  10   0.0160   0.0152   0.0041  -0.0154  -0.0045   0.0047   0.01    6.8
2168 479722.000   4005685.8535  -4312284.1808  -2450782.7486   1  10   0.0160   0.0152   0.0040  -0.0153  -0.0044   0.0047   0.01   12.3
2168 479723.000   4005685.8643  -4312284.1903  -2450782.7438   1  10   0.0160   0.0152   0.0041  -0.0153  -0.0045   0.0047   0.01    6.7
2168 479724.000   4005685.8663  -4312284.1932  -2450782.7517   1  11   0.0152   0.0145   0.0041  -0.0146  -0.0046   0.0048   0.01    6.7
2168 479725.000   4005685.8707  -4312284.1977  -2450782.7499   1  11   0.0152   0.0145   0.0040  -0.0146  -0.0045   0.0048   0.01   12.4
2168 479726.000   4005685.8882  -4312284.2107  -2450782.7471   1  11   0.0153   0.0145   0.0040  -0.0146  -0.0045   0.0048   0.01   12.5
2168 479727.000   4005685.8489  -4312284.1814  -2450782.7476   1  11   0.0151   0.0145   0.0040  -0.0145  -0.0045   0.0048   0.01   12.5
2168 479728.000   4005685.8469  -4312284.1786  -2450782.7518   1  11   0.0151   0.0145   0.0041  -0.0145  -0.0045   0.0048   0.01   12.5
2168 479729.000   4005685.8651  -4312284.2112  -2450782.7598   1  11   0.0154   0.0146   0.0042  -0.0148  -0.0044   0.0046   0.01   13.7
2168 479730.000   4005685.8534  -4312284.1893  -2450782.7537   1  11   0.0154   0.0146   0.0042  -0.0148  -0.0044   0.0046   0.01   13.8
2168 479731.000   4005685.8711  -4312284.1991  -2450782.7511   1  11   0.0151   0.0145   0.0041  -0.0145  -0.0045   0.0048   0.01    6.9
2168 479732.000   4005685.8862  -4312284.2126  -2450782.7472   1  11   0.0151   0.0145   0.0041  -0.0145  -0.0045   0.0048   0.01    6.9
2168 479733.000   4005685.8617  -4312284.1900  -2450782.7513   1  11   0.0151   0.0145   0.0041  -0.0145  -0.0045   0.0048   0.01    6.9
2168 479734.000   4005685.8717  -4312284.1997  -2450782.7465   1  11   0.0151   0.0144   0.0041  -0.0145  -0.0045   0.0048   0.01    6.5
2168 479735.000   4005685.8761  -4312284.2006  -2450782.7524   1  11   0.0151   0.0144   0.0040  -0.0145  -0.0045   0.0048   0.01    6.5
2168 479736.000   4005685.8660  -4312284.1908  -2450782.7507   1  11   0.0151   0.0144   0.0041  -0.0145  -0.0045   0.0048   0.01    6.6
2168 479737.000   4005685.8777  -4312284.2040  -2450782.7481   1  11   0.0151   0.0144   0.0041  -0.0145  -0.0045   0.0048   0.01    6.6
2168 479738.000   4005685.8684  -4312284.1922  -2450782.7492   1  11   0.0151   0.0144   0.0041  -0.0145  -0.0045   0.0048   0.01    3.5
2168 479739.000   4005685.8697  -4312284.1941  -2450782.7518   1  11   0.0151   0.0144   0.0041  -0.0145  -0.0045   0.0048   0.01    4.1
2168 479740.000   4005685.8716  -4312284.1969  -2450782.7497   1  11   0.0151   0.0144   0.0041  -0.0145  -0.0045   0.0048   0.01    4.6
2168 479741.000   4005685.8763  -4312284.2000  -2450782.7485   1  11   0.0150   0.0144   0.0040  -0.0145  -0.0044   0.0047   0.01    5.1
2168 479742.000   4005685.8614  -4312284.1887  -2450782.7529   1  11   0.0150   0.0144   0.0040  -0.0144  -0.0044   0.0047   0.01    5.7
2168 479743.000   4005685.8663  -4312284.1901  -2450782.7508   1  11   0.0150   0.0144   0.0040  -0.0144  -0.0044   0.0047   0.01    6.2
2168 479744.000   4005685.8676  -4312284.1904  -2450782.7539   1  11   0.0150   0.0144   0.0040  -0.0144  -0.0044   0.0047   0.01    6.7
2168 479745.000   4005685.8823  -4312284.2041  -2450782.7497   1  11   0.0150   0.0144   0.0040  -0.0144  -0.0044   0.0047   0.01    7.0
2168 479746.000   4005685.8752  -4312284.1975  -2450782.7509   1  11   0.0150   0.0144   0.0041  -0.0145  -0.0045   0.0048   0.01    7.2
2168 479747.000   4005685.8709  -4312284.1971  -2450782.7508   1  11   0.0150   0.0144   0.0040  -0.0145  -0.0045   0.0047   0.01    7.2
2168 479748.000   4005685.8587  -4312284.1841  -2450782.7485   1  10   0.0159   0.0151   0.0040  -0.0152  -0.0043   0.0046   0.01    7.2
2168 479749.000   4005685.8732  -4312284.1989  -2450782.7533   1  11   0.0151   0.0144   0.0040  -0.0145  -0.0045   0.0047   0.01    7.3
2168 479750.000   4005685.8754  -4312284.1999  -2450782.7529   1  11   0.0151   0.0145   0.0041  -0.0145  -0.0045   0.0048   0.01    7.4
2168 479751.000   4005685.8668  -4312284.1922  -2450782.7537   1  11   0.0151   0.0144   0.0040  -0.0145  -0.0044   0.0047   0.01    7.3
2168 479752.000   4005685.8722  -4312284.1979  -2450782.7515   1  11   0.0151   0.0144   0.0040  -0.0145  -0.0044   0.0047   0.01    7.4
2168 479753.000   4005685.8674  -4312284.1933  -2450782.7543   1  11   0.0151   0.0144   0.0040  -0.0145  -0.0044   0.0047   0.01    7.4
2168 479754.000   4005685.8700  -4312284.1962  -2450782.7508   1  11   0.0150   0.0144   0.0040  -0.0145  -0.0044   0.0047   0.01    3.4
2168 479755.000   4005685.8724  -4312284.1988  -2450782.7527   1  11   0.0150   0.0144   0.0040  -0.0145  -0.0044   0.0047   0.01    3.4
2168 479756.000   4005685.8844  -4312284.2078  -2450782.7518   1  11   0.0150   0.0144   0.0040  -0.0145  -0.0044   0.0047   0.01    3.5
2168 479757.000   4005685.8748  -4312284.2009  -2450782.7536   1  11   0.0150   0.0144   0.0040  -0.0145  -0.0044   0.0047   0.01    3.5
2168 479758.000   4005685.8732  -4312284.1970  -2450782.7507   1  10   0.0159   0.0151   0.0040  -0.0153  -0.0043   0.0046   0.01    7.6
2168 479759.000   4005685.8920  -4312284.2150  -2450782.7503   1  11   0.0150   0.0144   0.0041  -0.0145  -0.0045   0.0048   0.01    3.7
2168 479760.000   4005685.8840  -4312284.2110  -2450782.7483   1  11   0.0156   0.0149   0.0042  -0.0150  -0.0049   0.0052   0.01    3.7
2168 479761.000   4005685.8833  -4312284.2075  -2450782.7495   1  11   0.0156   0.0149   0.0042  -0.0150  -0.0049   0.0052   0.01    3.8
2168 479762.000   4005685.8821  -4312284.2077  -2450782.7512   1  11   0.0156   0.0150   0.0042  -0.0150  -0.0049   0.0052   0.01    3.8
2168 479763.000   4005685.8798  -4312284.2081  -2450782.7508   1  11   0.0157   0.0150   0.0042  -0.0151  -0.0050   0.0052   0.01    3.9
2168 479764.000   4005685.8770  -4312284.2032  -2450782.7514   1  11   0.0157   0.0150   0.0042  -0.0151  -0.0050   0.0052   0.01    4.0
2168 479765.000   4005685.8686  -4312284.1959  -2450782.7533   1  11   0.0158   0.0151   0.0043  -0.0152  -0.0050   0.0053   0.01    4.0
2168 479766.000   4005685.8678  -4312284.1957  -2450782.7538   1  11   0.0158   0.0151   0.0043  -0.0152  -0.0050   0.0053   0.01    4.1
2168 479767.000   4005685.8703  -4312284.1981  -2450782.7508   1  11   0.0159   0.0152   0.0043  -0.0153  -0.0051   0.0053   0.01    4.1
2168 479768.000   4005685.8741  -4312284.1985  -2450782.7494   1  11   0.0160   0.0153   0.0043  -0.0154  -0.0051   0.0053   0.01    4.2
2168 479769.000   4005685.8705  -4312284.1981  -2450782.7502   1  11   0.0162   0.0154   0.0043  -0.0155  -0.0051   0.0054   0.01    4.3
2168 479770.000   4005685.8705  -4312284.1996  -2450782.7524   1  11   0.0164   0.0156   0.0043  -0.0158  -0.0051   0.0054   0.01    4.4
2168 479771.000   4005685.8584  -4312284.1837  -2450782.7502   1  11   0.0170   0.0160   0.0044  -0.0162  -0.0051   0.0054   0.01    4.5
2168 479772.000   4005685.9068  -4312284.2198  -2450782.7518   1  11   0.0193   0.0178   0.0044  -0.0183  -0.0051   0.0054   0.01    4.6
2168 479773.000   4005685.8577  -4312284.1821  -2450782.7564   1  11   0.0172   0.0162   0.0045  -0.0165  -0.0054   0.0056   0.01    4.8
2168 479774.000   4005685.8695  -4312284.1944  -2450782.7545   1  11   0.0166   0.0158   0.0045  -0.0160  -0.0054   0.0056   0.01    4.9
2168 479775.000   4005685.8640  -4312284.1847  -2450782.7560   1  11   0.0165   0.0158   0.0046  -0.0159  -0.0056   0.0058   0.01    5.0
2168 479776.000   4005685.8661  -4312284.1892  -2450782.7517   1  11   0.0164   0.0158   0.0046  -0.0159  -0.0057   0.0059   0.01    5.2
2168 479777.000   4005685.8528  -4312284.1814  -2450782.7548   1  11   0.0164   0.0158   0.0046  -0.0159  -0.0057   0.0059   0.01    5.2
2168 479778.000   4005685.8638  -4312284.1910  -2450782.7537   1  11   0.0172   0.0168   0.0048  -0.0168  -0.0059   0.0061   0.01    5.3
2168 479779.000   4005685.8705  -4312284.1971  -2450782.7520   1  11   0.0167   0.0160   0.0048  -0.0161  -0.0061   0.0063   0.01    5.4
2168 479780.000   4005685.8681  -4312284.1929  -2450782.7508   1  11   0.0169   0.0163   0.0049  -0.0164  -0.0064   0.0066   0.01    5.5
2168 479781.000   4005685.8638  -4312284.1914  -2450782.7502   1  11   0.0173   0.0167   0.0052  -0.0168  -0.0069   0.0070   0.01    5.6
2168 479782.000   4005685.8070  -4312284.1350  -2450782.7759   1  10   0.0183   0.0178   0.0057  -0.0179  -0.0079   0.0080   0.01    6.2
2168 479783.000   4005685.8230  -4312284.1481  -2450782.7687   1  10   0.0185   0.0179   0.0058  -0.0180  -0.0080   0.0081   0.01    6.3
2168 479784.000   4005685.8156  -4312284.1419  -2450782.7721   1  10   0.0185   0.0179   0.0057  -0.0180  -0.0079   0.0081   0.01    6.3
2168 479785.000   4005685.8729  -4312284.1944  -2450782.7499   1  10   0.0283   0.0278   0.0101  -0.0279  -0.0155   0.0157   0.01    3.3
2168 479786.000   4005685.8543  -4312284.1842  -2450782.7562   1  10   0.0306   0.0302   0.0112  -0.0303  -0.0173   0.0174   0.01    3.5
2168 479787.000   4005685.8496  -4312284.1777  -2450782.7545   1  11   0.0240   0.0236   0.0084  -0.0236  -0.0126   0.0127   0.01    3.7
2168 479788.000   4005685.8604  -4312284.1881  -2450782.7515   1  11   0.0237   0.0233   0.0082  -0.0233  -0.0123   0.0124   0.01    3.9
2168 479789.000   4005685.8575  -4312284.1862  -2450782.7504   1  11   0.0235   0.0230   0.0080  -0.0231  -0.0120   0.0122   0.01    4.0
2168 479790.000   4005685.8597  -4312284.1852  -2450782.7491   1  10   0.0209   0.0205   0.0070  -0.0205  -0.0102   0.0103   0.01    4.2
2168 479791.000   4005685.8741  -4312284.1996  -2450782.7479   1  10   0.0206   0.0201   0.0068  -0.0202  -0.0099   0.0100   0.01    4.3
2168 479792.000   4005685.8674  -4312284.1947  -2450782.7532   1  10   0.0211   0.0206   0.0070  -0.0206  -0.0102   0.0103   0.01    4.5
2168 479793.000   4005685.8921  -4312284.2178  -2450782.7439   1  11   0.0284   0.0279   0.0101  -0.0280  -0.0155   0.0157   0.01    4.7
2168 479794.000   4005685.8500  -4312284.1782  -2450782.7567   1  10   0.0212   0.0207   0.0070  -0.0207  -0.0102   0.0104   0.01    6.4
2168 479795.000   4005685.8732  -4312284.1980  -2450782.7469   1  10   0.0208   0.0202   0.0068  -0.0203  -0.0099   0.0100   0.01    6.5
2168 479796.000   4005685.8701  -4312284.1934  -2450782.7519   1  11   0.0229   0.0225   0.0079  -0.0226  -0.0117   0.0118   0.01    6.6
2168 479797.000   4005685.8502  -4312284.1753  -2450782.7503   1  10   0.0234   0.0228   0.0076  -0.0229  -0.0113   0.0115   0.01    9.6
2168 479798.000   4005685.8445  -4312284.1693  -2450782.7513   1  10   0.0234   0.0228   0.0076  -0.0229  -0.0113   0.0115   0.01    9.6
2168 479799.000   4005685.8487  -4312284.1741  -2450782.7518   1  10   0.0237   0.0230   0.0076  -0.0232  -0.0114   0.0116   0.01   10.7
2168 479800.000   4005685.8347  -4312284.1604  -2450782.7601   1  10   0.0182   0.0177   0.0056  -0.0177  -0.0078   0.0079   0.01    6.6
2168 479801.000   4005685.8205  -4312284.1461  -2450782.7688   1  10   0.0181   0.0175   0.0056  -0.0176  -0.0076   0.0078   0.01    6.6
2168 479802.000   4005685.8289  -4312284.1554  -2450782.7626   1  10   0.0179   0.0174   0.0055  -0.0174  -0.0075   0.0077   0.01    6.7
2168 479803.000   4005685.8223  -4312284.1487  -2450782.7684   1  10   0.0179   0.0175   0.0056  -0.0175  -0.0076   0.0078   0.01    6.9
2168 479804.000   4005685.8243  -4312284.1470  -2450782.7679   1  10   0.0179   0.0174   0.0056  -0.0174  -0.0076   0.0077   0.01    6.9
2168 479805.000   4005685.8260  -4312284.1519  -2450782.7664   1  10   0.0178   0.0173   0.0055  -0.0173  -0.0075   0.0077   0.01    7.0
2168 479806.000   4005685.8457  -4312284.1718  -2450782.7586   1  10   0.0176   0.0171   0.0054  -0.0172  -0.0073   0.0074   0.01    7.0
2168 479807.000   4005685.8275  -4312284.1528  -2450782.7619   1  10   0.0176   0.0170   0.0054  -0.0171  -0.0072   0.0074   0.01    7.1
2168 479808.000   4005685.8744  -4312284.2017  -2450782.7429   1  10   0.0175   0.0170   0.0053  -0.0170  -0.0072   0.0074   0.01    7.1
2168 479809.000   4005685.8606  -4312284.1870  -2450782.7497   1  11   0.0169   0.0164   0.0051  -0.0164  -0.0066   0.0068   0.01    7.2
2168 479810.000   4005685.8629  -4312284.1892  -2450782.7493   1  11   0.0165   0.0160   0.0049  -0.0160  -0.0062   0.0064   0.01    7.2
2168 479811.000   4005685.8618  -4312284.1899  -2450782.7530   1  11   0.0162   0.0157   0.0047  -0.0157  -0.0060   0.0062   0.01    7.3
2168 479812.000   4005685.8685  -4312284.1926  -2450782.7507   1  11   0.0161   0.0155   0.0046  -0.0156  -0.0058   0.0060   0.01    7.3
2168 479813.000   4005685.8704  -4312284.1978  -2450782.7508   1  11   0.0159   0.0154   0.0045  -0.0154  -0.0056   0.0058   0.01    7.4
2168 479814.000   4005685.8713  -4312284.1945  -2450782.7499   1  11   0.0158   0.0152   0.0045  -0.0153  -0.0055   0.0057   0.01    7.4
2168 479815.000   4005685.8749  -4312284.1984  -2450782.7459   1  11   0.0157   0.0151   0.0044  -0.0152  -0.0054   0.0056   0.01    7.5
2168 479816.000   4005685.8751  -4312284.2000  -2450782.7500   1  11   0.0156   0.0151   0.0044  -0.0151  -0.0053   0.0055   0.01    7.6
2168 479817.000   4005685.8715  -4312284.1948  -2450782.7484   1  11   0.0155   0.0150   0.0044  -0.0150  -0.0052   0.0054   0.01    7.6
2168 479818.000   4005685.8757  -4312284.1986  -2450782.7448   1  11   0.0155   0.0149   0.0043  -0.0150  -0.0051   0.0054   0.01    7.7
2168 479819.000   4005685.8755  -4312284.1987  -2450782.7456   1  11   0.0154   0.0149   0.0043  -0.0149  -0.0051   0.0053   0.01    7.7
2168 479820.000   4005685.8710  -4312284.1937  -2450782.7481   1  11   0.0154   0.0148   0.0043  -0.0149  -0.0050   0.0052   0.01    7.8
2168 479821.000   4005685.8683  -4312284.1911  -2450782.7480   1  11   0.0153   0.0148   0.0043  -0.0148  -0.0050   0.0052   0.01    7.9
2168 479822.000   4005685.8722  -4312284.1931  -2450782.7455   1  11   0.0153   0.0147   0.0042  -0.0148  -0.0049   0.0052   0.01    7.9
2168 479823.000   4005685.8680  -4312284.1945  -2450782.7459   1  11   0.0153   0.0147   0.0042  -0.0147  -0.0049   0.0051   0.01    8.0
2168 479824.000   4005685.8731  -4312284.2001  -2450782.7462   1  11   0.0149   0.0144   0.0040  -0.0144  -0.0045   0.0047   0.01    8.0
2168 479825.000   4005685.8797  -4312284.2052  -2450782.7488   1  11   0.0143   0.0139   0.0037  -0.0138  -0.0037   0.0039   0.01    3.6
2168 479826.000   4005685.8687  -4312284.1966  -2450782.7459   1  11   0.0143   0.0139   0.0036  -0.0138  -0.0037   0.0039   0.01    3.7
2168 479827.000   4005685.8746  -4312284.2005  -2450782.7454   1  11   0.0143   0.0138   0.0036  -0.0138  -0.0036   0.0038   0.01    3.9
2168 479828.000   4005685.8678  -4312284.1942  -2450782.7443   1  11   0.0143   0.0138   0.0036  -0.0138  -0.0036   0.0038   0.01    4.0
2168 479829.000   4005685.8695  -4312284.1938  -2450782.7470   1  11   0.0143   0.0138   0.0036  -0.0138  -0.0036   0.0038   0.01    4.2
2168 479830.000   4005685.8627  -4312284.1868  -2450782.7456   1  11   0.0142   0.0138   0.0036  -0.0137  -0.0036   0.0037   0.01    3.2
2168 479831.000   4005685.8709  -4312284.1977  -2450782.7453   1  11   0.0142   0.0138   0.0036  -0.0137  -0.0036   0.0037   0.01    3.6
2168 479832.000   4005685.8726  -4312284.1978  -2450782.7445   1  11   0.0142   0.0138   0.0036  -0.0137  -0.0036   0.0037   0.01    4.0
2168 479833.000   4005685.8767  -4312284.2001  -2450782.7437   1  11   0.0142   0.0138   0.0036  -0.0137  -0.0036   0.0037   0.01    4.4
2168 479834.000   4005685.8757  -4312284.1993  -2450782.7439   1  11   0.0142   0.0138   0.0036  -0.0137  -0.0036   0.0037   0.01    4.8
2168 479835.000   4005685.8759  -4312284.2010  -2450782.7435   1  11   0.0142   0.0138   0.0036  -0.0137  -0.0036   0.0037   0.01    5.1
2168 479836.000   4005685.8795  -4312284.2033  -2450782.7449   1  11   0.0142   0.0138   0.0036  -0.0137  -0.0036   0.0037   0.01    5.5
2168 479837.000   4005685.8771  -4312284.2017  -2450782.7426   1  11   0.0142   0.0138   0.0036  -0.0137  -0.0036   0.0037   0.01    6.0
2168 479838.000   4005685.8740  -4312284.2014  -2450782.7456   1  11   0.0142   0.0138   0.0036  -0.0137  -0.0036   0.0037   0.01    6.3
2168 479839.000   4005685.8734  -4312284.1969  -2450782.7462   1  11   0.0142   0.0138   0.0036  -0.0137  -0.0036   0.0037   0.01    6.6
2168 479840.000   4005685.8667  -4312284.1938  -2450782.7444   1  11   0.0142   0.0138   0.0036  -0.0137  -0.0036   0.0037   0.01    6.9
2168 479841.000   4005685.8831  -4312284.2043  -2450782.7471   1  11   0.0142   0.0138   0.0036  -0.0137  -0.0035   0.0037   0.01    7.2
2168 479842.000   4005685.8824  -4312284.2073  -2450782.7452   1  11   0.0142   0.0138   0.0036  -0.0137  -0.0035   0.0037   0.01    7.4
2168 479843.000   4005685.8762  -4312284.2006  -2450782.7476   1  11   0.0142   0.0138   0.0036  -0.0137  -0.0035   0.0037   0.01    7.6
2168 479844.000   4005685.8739  -4312284.1976  -2450782.7462   1  11   0.0142   0.0138   0.0036  -0.0137  -0.0035   0.0037   0.01    7.8
2168 479845.000   4005685.8730  -4312284.1971  -2450782.7453   1  11   0.0142   0.0137   0.0036  -0.0137  -0.0035   0.0037   0.01    8.1
2168 479846.000   4005685.8670  -4312284.1925  -2450782.7478   1  11   0.0142   0.0137   0.0036  -0.0137  -0.0035   0.0037   0.01    8.3
2168 479847.000   4005685.8716  -4312284.1973  -2450782.7485   1  11   0.0142   0.0137   0.0036  -0.0137  -0.0035   0.0037   0.01    8.5
2168 479848.000   4005685.8822  -4312284.2056  -2450782.7438   1  11   0.0141   0.0137   0.0036  -0.0137  -0.0035   0.0037   0.01    8.7
2168 479849.000   4005685.8761  -4312284.2003  -2450782.7474   1  11   0.0141   0.0137   0.0036  -0.0137  -0.0035   0.0037   0.01    8.9
2168 479850.000   4005685.8699  -4312284.1942  -2450782.7461   1  11   0.0141   0.0137   0.0036  -0.0137  -0.0035   0.0037   0.01    9.0
2168 479851.000   4005685.8681  -4312284.1916  -2450782.7454   1  11   0.0141   0.0137   0.0036  -0.0137  -0.0035   0.0037   0.01    9.0
2168 479852.000   4005685.8688  -4312284.1923  -2450782.7481   1  12   0.0115   0.0114   0.0035  -0.0111  -0.0026   0.0028   0.01    9.1
2168 479853.000   4005685.8687  -4312284.1949  -2450782.7471   1  12   0.0110   0.0109   0.0035  -0.0106  -0.0024   0.0026   0.01    9.1
2168 479854.000   4005685.8705  -4312284.1974  -2450782.7461   1  12   0.0107   0.0107   0.0035  -0.0103  -0.0023   0.0025   0.01    9.1
2168 479855.000   4005685.8642  -4312284.1906  -2450782.7486   1  12   0.0105   0.0105   0.0035  -0.0102  -0.0022   0.0024   0.01    9.1
2168 479856.000   4005685.8658  -4312284.1901  -2450782.7450   1  12   0.0107   0.0109   0.0035  -0.0105  -0.0019   0.0022   0.01    9.1
2168 479857.000   4005685.8712  -4312284.1992  -2450782.7500   1  12   0.0104   0.0104   0.0035  -0.0100  -0.0022   0.0023   0.01    9.2
2168 479858.000   4005685.8679  -4312284.1944  -2450782.7496   1  12   0.0106   0.0108   0.0035  -0.0104  -0.0019   0.0021   0.01    9.2
2168 479859.000   4005685.8680  -4312284.1915  -2450782.7488   1  12   0.0105   0.0108   0.0035  -0.0103  -0.0018   0.0021   0.01    9.3
2168 479860.000   4005685.8659  -4312284.1899  -2450782.7479   1  12   0.0105   0.0108   0.0035  -0.0103  -0.0018   0.0021   0.01    9.3
2168 479861.000   4005685.8684  -4312284.1928  -2450782.7493   1  12   0.0105   0.0107   0.0035  -0.0103  -0.0018   0.0021   0.01    9.4
2168 479862.000   4005685.8665  -4312284.1884  -2450782.7508   1  12   0.0105   0.0107   0.0035  -0.0102  -0.0018   0.0021   0.01    9.4
2168 479863.000   4005685.8667  -4312284.1887  -2450782.7463   1  12   0.0104   0.0107   0.0035  -0.0102  -0.0018   0.0021   0.01    9.4
2168 479864.000   4005685.8627  -4312284.1850  -2450782.7483   1  12   0.0104   0.0107   0.0035  -0.0102  -0.0018   0.0020   0.01    9.5
2168 479865.000   4005685.8651  -4312284.1872  -2450782.7499   1  12   0.0102   0.0102   0.0035  -0.0098  -0.0021   0.0022   0.01    9.5
2168 479866.000   4005685.8674  -4312284.1898  -2450782.7472   1  12   0.0101   0.0102   0.0035  -0.0098  -0.0021   0.0022   0.01    9.4
2168 479867.000   4005685.8619  -4312284.1854  -2450782.7478   1  12   0.0101   0.0102   0.0035  -0.0098  -0.0021   0.0022   0.01    9.4
2168 479868.000   4005685.8639  -4312284.1861  -2450782.7493   1  12   0.0101   0.0102   0.0035  -0.0098  -0.0021   0.0022   0.01    9.4
2168 479869.000   4005685.8668  -4312284.1885  -2450782.7491   1  12   0.0101   0.0102   0.0035  -0.0098  -0.0021   0.0022   0.01    9.4
2168 479870.000   4005685.8635  -4312284.1872  -2450782.7478   1  12   0.0101   0.0102   0.0035  -0.0098  -0.0021   0.0022   0.01    9.4
2168 479871.000   4005685.8610  -4312284.1862  -2450782.7482   1  12   0.0101   0.0101   0.0035  -0.0098  -0.0021   0.0022   0.01    9.3
2168 479872.000   4005685.8609  -4312284.1869  -2450782.7482   1  12   0.0101   0.0101   0.0035  -0.0097  -0.0021   0.0022   0.01    9.3
2168 479873.000   4005685.8531  -4312284.1749  -2450782.7524   1  12   0.0102   0.0102   0.0035  -0.0098  -0.0020   0.0021   0.01    7.9
2168 479874.000   4005685.8528  -4312284.1729  -2450782.7464   1  12   0.0102   0.0102   0.0035  -0.0098  -0.0020   0.0021   0.01    7.9
2168 479875.000   4005685.8546  -4312284.1789  -2450782.7482   1  12   0.0101   0.0102   0.0035  -0.0098  -0.0020   0.0022   0.01   10.7
2168 479876.000   4005685.8556  -4312284.1792  -2450782.7477   1  12   0.0101   0.0102   0.0035  -0.0098  -0.0020   0.0021   0.01   10.7
2168 479877.000   4005685.8554  -4312284.1778  -2450782.7478   1  12   0.0101   0.0102   0.0035  -0.0098  -0.0020   0.0021   0.01   10.7
2168 479878.000   4005685.8575  -4312284.1801  -2450782.7492   1  12   0.0101   0.0102   0.0035  -0.0098  -0.0020   0.0021   0.01   10.7
2168 479879.000   4005685.8513  -4312284.1789  -2450782.7494   1  12   0.0101   0.0102   0.0035  -0.0098  -0.0020   0.0021   0.01   10.6
2168 479880.000   4005685.8492  -4312284.1723  -2450782.7469   1  12   0.0101   0.0102   0.0035  -0.0098  -0.0020   0.0021   0.01   10.6
2168 479881.000   4005685.8541  -4312284.1755  -2450782.7491   1  12   0.0101   0.0101   0.0035  -0.0098  -0.0020   0.0021   0.01   10.6
2168 479882.000   4005685.8554  -4312284.1790  -2450782.7458   1  12   0.0101   0.0101   0.0035  -0.0098  -0.0020   0.0021   0.01   10.5
2168 479883.000   4005685.8616  -4312284.1838  -2450782.7460   1  12   0.0101   0.0101   0.0035  -0.0097  -0.0020   0.0021   0.01   10.5
2168 479884.000   4005685.8614  -4312284.1842  -2450782.7488   1  12   0.0101   0.0101   0.0035  -0.0097  -0.0020   0.0021   0.01   10.5
2168 479885.000   4005685.8595  -4312284.1817  -2450782.7481   1  12   0.0101   0.0101   0.0035  -0.0097  -0.0020   0.0021   0.01   10.5
2168 479886.000   4005685.8545  -4312284.1770  -2450782.7483   1  12   0.0101   0.0101   0.0035  -0.0097  -0.0020   0.0021   0.01    7.5
2168 479887.000   4005685.8591  -4312284.1789  -2450782.7473   1  12   0.0101   0.0101   0.0035  -0.0097  -0.0020   0.0021   0.01   10.5
2168 479888.000   4005685.8550  -4312284.1782  -2450782.7464   1  12   0.0100   0.0101   0.0035  -0.0097  -0.0020   0.0021   0.01   10.5
2168 479889.000   4005685.8502  -4312284.1720  -2450782.7475   1  12   0.0100   0.0101   0.0035  -0.0097  -0.0020   0.0021   0.01   10.5
2168 479890.000   4005685.8511  -4312284.1717  -2450782.7495   1  12   0.0100   0.0101   0.0035  -0.0097  -0.0020   0.0021   0.01   10.5
2168 479891.000   4005685.8494  -4312284.1710  -2450782.7489   1  12   0.0100   0.0101   0.0035  -0.0097  -0.0020   0.0021   0.01   10.4
2168 479892.000   4005685.8579  -4312284.1777  -2450782.7483   1  12   0.0100   0.0101   0.0035  -0.0097  -0.0020   0.0021   0.01   10.5
2168 479893.000   4005685.8540  -4312284.1738  -2450782.7483   1  12   0.0100   0.0101   0.0035  -0.0097  -0.0020   0.0021   0.01   10.5
2168 479894.000   4005685.8494  -4312284.1699  -2450782.7489   1  12   0.0100   0.0101   0.0035  -0.0097  -0.0020   0.0021   0.01   10.5
2168 479895.000   4005685.8531  -4312284.1792  -2450782.7493   1  12   0.0103   0.0106   0.0035  -0.0100  -0.0016   0.0019   0.01   10.4
2168 479896.000   4005685.8549  -4312284.1755  -2450782.7487   1  12   0.0100   0.0101   0.0035  -0.0097  -0.0020   0.0021   0.01   10.4
2168 479897.000   4005685.8589  -4312284.1802  -2450782.7470   1  12   0.0100   0.0101   0.0035  -0.0097  -0.0020   0.0021   0.01    7.3
2168 479898.000   4005685.8553  -4312284.1781  -2450782.7480   1  12   0.0100   0.0101   0.0035  -0.0097  -0.0020   0.0021   0.01   10.4
2168 479899.000   4005685.8564  -4312284.1783  -2450782.7470   1  12   0.0100   0.0101   0.0035  -0.0097  -0.0020   0.0021   0.01   10.3
2168 479900.000   4005685.8531  -4312284.1765  -2450782.7487   1  12   0.0100   0.0101   0.0035  -0.0097  -0.0020   0.0021   0.01   10.3
2168 479901.000   4005685.8541  -4312284.1718  -2450782.7461   1  12   0.0101   0.0105   0.0035  -0.0099  -0.0017   0.0020   0.01   10.3
2168 479902.000   4005685.8556  -4312284.1770  -2450782.7479   1  12   0.0102   0.0105   0.0035  -0.0100  -0.0016   0.0019   0.01   10.3
2168 479903.000   4005685.8564  -4312284.1787  -2450782.7472   1  12   0.0099   0.0100   0.0035  -0.0096  -0.0020   0.0021   0.01    3.5
2168 479904.000   4005685.8596  -4312284.1814  -2450782.7484   1  12   0.0102   0.0105   0.0035  -0.0100  -0.0016   0.0019   0.01    3.6
2168 479905.000   4005685.8599  -4312284.1807  -2450782.7492   1  12   0.0102   0.0105   0.0035  -0.0100  -0.0016   0.0019   0.01    3.6
2168 479906.000   4005685.8606  -4312284.1792  -2450782.7493   1  12   0.0099   0.0100   0.0035  -0.0096  -0.0020   0.0021   0.01    3.7
2168 479907.000   4005685.8639  -4312284.1849  -2450782.7481   1  12   0.0099   0.0100   0.0035  -0.0096  -0.0020   0.0021   0.01    3.8
2168 479908.000   4005685.8614  -4312284.1803  -2450782.7484   1  12   0.0100   0.0104   0.0035  -0.0098  -0.0018   0.0021   0.01    3.9
